{
	"type": "FeatureCollection",
	"features": [
		{
			"type": "Feature",
			"geometry": {
				"type": "Point",
				"coordinates": [121.667917, 31.149712]
			},
			"properties": {
				"Name": "上海迪士尼乐园",
				"Location": "上海·上海·浦东新区",
				"Price": 399,
				"Sale": 22687,
				"Address": "上海市浦东新区川沙新镇上海迪士尼度假区内",
				"Latitude": 121.667917,
				"Longitude": 31.149712,
				"Slogan": "点亮心中奇梦"
			}
		},
		{
			"type": "Feature",
			"geometry": {
				"type": "Point",
				"coordinates": [114.053896, 22.315234]
			},
			"properties": {
				"Name": "香港迪士尼乐园",
				"Location": "香港·香港·离岛",
				"Price": 446,
				"Sale": 20976,
				"Address": "香港特别行政区离岛区大屿山神奇道香港迪士尼乐园",
				"Latitude": 114.053896,
				"Longitude": 22.315234,
				"Slogan": "身临其境感受童话王国"
			}
		},
		{
			"type": "Feature",
			"geometry": {
				"type": "Point",
				"coordinates": [116.403347, 39.922148]
			},
			"properties": {
				"Name": "故宫",
				"Location": "北京·北京·东城区",
				"Price": 60,
				"Sale": 18980,
				"Address": "北京市东城区景山前街4号",
				"Latitude": 116.403347,
				"Longitude": 39.922148,
				"Slogan": "一起来逛逛春天的故宫吧"
			}
		},
		{
			"type": "Feature",
			"geometry": {
				"type": "Point",
				"coordinates": [113.322466, 23.011606]
			},
			"properties": {
				"Name": "广州长隆旅游度假区",
				"Location": "广东·广州·番禺",
				"Price": 83,
				"Sale": 14202,
				"Address": "广东省广州市番禺区番禺大道",
				"Latitude": 113.322466,
				"Longitude": 23.011606,
				"Slogan": "一站式旅游度假胜地，广东必游景点"
			}
		},
		{
			"type": "Feature",
			"geometry": {
				"type": "Point",
				"coordinates": [121.618712, 38.887983]
			},
			"properties": {
				"Name": "大连森林动物园",
				"Location": "辽宁·大连·西岗区",
				"Price": 118,
				"Sale": 12824,
				"Address": "大连市西岗区迎春路60号、大连市西岗区滨海西路79号",
				"Latitude": 121.618712,
				"Longitude": 38.887983,
				"Slogan": "大熊猫金虎、妙音、飞云与您共度欢乐时光！"
			}
		},
		{
			"type": "Feature",
			"geometry": {
				"type": "Point",
				"coordinates": [121.22218, 31.102491]
			},
			"properties": {
				"Name": "上海欢乐谷",
				"Location": "上海·上海·松江区",
				"Price": 208,
				"Sale": 12607,
				"Address": "上海市松江区佘山镇林湖路888号",
				"Latitude": 121.22218,
				"Longitude": 31.102491,
				"Slogan": "游乐项目惊险刺激，特色表演异彩纷呈"
			}
		},
		{
			"type": "Feature",
			"geometry": {
				"type": "Point",
				"coordinates": [109.266029, 34.386024]
			},
			"properties": {
				"Name": "秦始皇陵博物院（兵马俑）",
				"Location": "陕西·西安·临潼区",
				"Price": 120,
				"Sale": 11591,
				"Address": "陕西省西安市临潼县秦始皇陵东1.5公里处",
				"Latitude": 109.266029,
				"Longitude": 34.386024,
				"Slogan": "世界第八大奇迹"
			}
		},
		{
			"type": "Feature",
			"geometry": {
				"type": "Point",
				"coordinates": [104.152603, 30.738951]
			},
			"properties": {
				"Name": "成都大熊猫繁育研究基地",
				"Location": "四川·成都·成华区",
				"Price": 20,
				"Sale": 11492,
				"Address": "四川省成都市成华区外北熊猫大道1375号",
				"Latitude": 104.152603,
				"Longitude": 30.738951,
				"Slogan": "无关黑与白， 不分胖与瘦， 可爱而又温暖"
			}
		},
		{
			"type": "Feature",
			"geometry": {
				"type": "Point",
				"coordinates": [121.728112, 31.059636]
			},
			"properties": {
				"Name": "上海野生动物园",
				"Location": "上海·上海·浦东新区",
				"Price": 119,
				"Sale": 10874,
				"Address": "上海市浦东新区南六公路178号",
				"Latitude": 121.728112,
				"Longitude": 31.059636,
				"Slogan": "与野生动物近距离的“亲密接触”"
			}
		},
		{
			"type": "Feature",
			"geometry": {
				"type": "Point",
				"coordinates": [115.984178, 40.446359]
			},
			"properties": {
				"Name": "北京世界园艺博览会",
				"Location": "北京·北京·延庆县",
				"Price": 108,
				"Sale": 10239,
				"Address": "北京市延庆区百泉街17号",
				"Latitude": 115.984178,
				"Longitude": 40.446359,
				"Slogan": "A1级国际园艺博览会"
			}
		},
		{
			"type": "Feature",
			"geometry": {
				"type": "Point",
				"coordinates": [108.339179, 22.832756]
			},
			"properties": {
				"Name": "南宁海底世界",
				"Location": "广西·南宁·兴宁区",
				"Price": 40,
				"Sale": 9408,
				"Address": "广西省南宁市兴宁区民主路6-8号人民公园后门",
				"Latitude": 108.339179,
				"Longitude": 22.832756,
				"Slogan": "不一样的地方，不一样的海底世界"
			}
		},
		{
			"type": "Feature",
			"geometry": {
				"type": "Point",
				"coordinates": [114.30429, 30.552322]
			},
			"properties": {
				"Name": "户部巷",
				"Location": "湖北·武汉·武昌区",
				"Price": 65,
				"Sale": 8918,
				"Address": "湖北省武汉市武昌区自由路",
				"Latitude": 114.30429,
				"Longitude": 30.552322,
				"Slogan": "汉味早点特色街区"
			}
		},
		{
			"type": "Feature",
			"geometry": {
				"type": "Point",
				"coordinates": [118.003549, 29.91024]
			},
			"properties": {
				"Name": "西递村",
				"Location": "安徽·黄山·黟县",
				"Price": 94,
				"Sale": 8738,
				"Address": "安徽省黄山市黟县西递镇西递村",
				"Latitude": 118.003549,
				"Longitude": 29.91024,
				"Slogan": "徽派建筑，乡间水墨画"
			}
		},
		{
			"type": "Feature",
			"geometry": {
				"type": "Point",
				"coordinates": [109.36116, 18.298477]
			},
			"properties": {
				"Name": "天涯海角",
				"Location": "海南·三亚·天涯区",
				"Price": 59,
				"Sale": 8072,
				"Address": "海南省三亚市沿海滨西行26公里天涯镇马岭山麓",
				"Latitude": 109.36116,
				"Longitude": 18.298477,
				"Slogan": "天之涯海之角，爱就陪Ta到天涯海角"
			}
		},
		{
			"type": "Feature",
			"geometry": {
				"type": "Point",
				"coordinates": [113.335765, 23.0003]
			},
			"properties": {
				"Name": "长隆野生动物世界",
				"Location": "广东·广州·广州长隆旅游度假区",
				"Price": 270,
				"Sale": 8025,
				"Address": "广东省广州市番禺区迎宾路长隆旅游度假村旁",
				"Latitude": 113.335765,
				"Longitude": 23.0003,
				"Slogan": "熊猫三胞胎，与您共享欢乐时光"
			}
		},
		{
			"type": "Feature",
			"geometry": {
				"type": "Point",
				"coordinates": [114.310242, 22.615183]
			},
			"properties": {
				"Name": "东部华侨城大侠谷",
				"Location": "广东·深圳·东部华侨城",
				"Price": 115,
				"Sale": 7372,
				"Address": "广东省深圳市盐田区大梅沙东部华侨城",
				"Latitude": 114.310242,
				"Longitude": 22.615183,
				"Slogan": "行走峡湾栈道，倾听大自然的天籁之音"
			}
		},
		{
			"type": "Feature",
			"geometry": {
				"type": "Point",
				"coordinates": [104.080914, 30.50059]
			},
			"properties": {
				"Name": "成都海昌极地海洋公园",
				"Location": "四川·成都·双流县",
				"Price": 198,
				"Sale": 6988,
				"Address": "成都市天府新区华阳海洋路68号",
				"Latitude": 104.080914,
				"Longitude": 30.50059,
				"Slogan": "一天游南北极，来了才知海洋多奇妙"
			}
		},
		{
			"type": "Feature",
			"geometry": {
				"type": "Point",
				"coordinates": [102.669319, 24.971676]
			},
			"properties": {
				"Name": "云南民族村",
				"Location": "云南·昆明·西山区",
				"Price": 78,
				"Sale": 6912,
				"Address": "云南省昆明市西山区滇池路1310号",
				"Latitude": 102.669319,
				"Longitude": 24.971676,
				"Slogan": "体验云南多个种族的文化沉淀"
			}
		},
		{
			"type": "Feature",
			"geometry": {
				"type": "Point",
				"coordinates": [119.430517, 32.419989]
			},
			"properties": {
				"Name": "瘦西湖",
				"Location": "江苏·扬州·邗江区",
				"Price": 95,
				"Sale": 6641,
				"Address": "江苏省扬州市维扬区长春路118号",
				"Latitude": 119.430517,
				"Longitude": 32.419989,
				"Slogan": "湖上园林的典型代表"
			}
		},
		{
			"type": "Feature",
			"geometry": {
				"type": "Point",
				"coordinates": [114.179158, 27.722726]
			},
			"properties": {
				"Name": "仙凤三宝乡村文旅田园综合体",
				"Location": "江西·萍乡·芦溪县",
				"Price": 45,
				"Sale": 6452,
				"Address": "江西萍乡市芦溪县宣风镇竹垣村",
				"Latitude": 114.179158,
				"Longitude": 27.722726,
				"Slogan": "走进萍乡的“马尔代夫”"
			}
		},
		{
			"type": "Feature",
			"geometry": {
				"type": "Point",
				"coordinates": [117.747047, 34.563186]
			},
			"properties": {
				"Name": "台儿庄古城",
				"Location": "山东·枣庄·台儿庄区",
				"Price": 145,
				"Sale": 6063,
				"Address": "山东省枣庄市台儿庄区华兴路东段",
				"Latitude": 117.747047,
				"Longitude": 34.563186,
				"Slogan": "被誉为“中华民族扬威不屈之地”"
			}
		},
		{
			"type": "Feature",
			"geometry": {
				"type": "Point",
				"coordinates": [120.635191, 31.330583]
			},
			"properties": {
				"Name": "拙政园",
				"Location": "江苏·苏州·平江区",
				"Price": 39,
				"Sale": 6057,
				"Address": "江苏省苏州市平江区东北街178号",
				"Latitude": 120.635191,
				"Longitude": 31.330583,
				"Slogan": "庭院错落，花木为胜，天下园林之典范"
			}
		},
		{
			"type": "Feature",
			"geometry": {
				"type": "Point",
				"coordinates": [117.995474, 30.010385]
			},
			"properties": {
				"Name": "宏村",
				"Location": "安徽·黄山·黟县",
				"Price": 94,
				"Sale": 5957,
				"Address": "安徽省黄山市黟县宏村镇宏村里",
				"Latitude": 117.995474,
				"Longitude": 30.010385,
				"Slogan": "炊烟袅袅升起，行走在皖南小山村"
			}
		},
		{
			"type": "Feature",
			"geometry": {
				"type": "Point",
				"coordinates": [103.620123, 31.006855]
			},
			"properties": {
				"Name": "都江堰",
				"Location": "四川·成都·都江堰市",
				"Price": 38,
				"Sale": 5912,
				"Address": "四川省成都市都江堰市",
				"Latitude": 103.620123,
				"Longitude": 31.006855,
				"Slogan": "感受都江堰水利工程的古人智慧"
			}
		},
		{
			"type": "Feature",
			"geometry": {
				"type": "Point",
				"coordinates": [116.03293, 40.369733]
			},
			"properties": {
				"Name": "八达岭长城",
				"Location": "北京·北京·延庆县",
				"Price": 125,
				"Sale": 5898,
				"Address": "北京市延庆县军都山关沟古道北口216省道附近",
				"Latitude": 116.03293,
				"Longitude": 40.369733,
				"Slogan": "不到长城非好汉"
			}
		},
		{
			"type": "Feature",
			"geometry": {
				"type": "Point",
				"coordinates": [113.979471, 22.540136]
			},
			"properties": {
				"Name": "世界之窗",
				"Location": "广东·深圳·华侨城",
				"Price": 85,
				"Sale": 5859,
				"Address": "广东省深圳市南山区深南大道9037号",
				"Latitude": 113.979471,
				"Longitude": 22.540136,
				"Slogan": "全球微缩景点，精彩演绎、娱乐项目应有尽有"
			}
		},
		{
			"type": "Feature",
			"geometry": {
				"type": "Point",
				"coordinates": [113.544272, 22.104641]
			},
			"properties": {
				"Name": "珠海长隆海洋王国",
				"Location": "广东·珠海·珠海长隆国际海洋度假区",
				"Price": 312,
				"Sale": 5500,
				"Address": "广东省珠海市横琴新区富祥湾",
				"Latitude": 113.544272,
				"Longitude": 22.104641,
				"Slogan": "经历一场难忘的深海历奇之旅"
			}
		},
		{
			"type": "Feature",
			"geometry": {
				"type": "Point",
				"coordinates": [118.193977, 30.097967]
			},
			"properties": {
				"Name": "黄山风景区",
				"Location": "安徽·黄山·黄山区",
				"Price": 190,
				"Sale": 5469,
				"Address": "安徽省黄山市黄山区黄山风景区",
				"Latitude": 118.193977,
				"Longitude": 30.097967,
				"Slogan": "五岳归来不看山，黄山归来不看岳"
			}
		},
		{
			"type": "Feature",
			"geometry": {
				"type": "Point",
				"coordinates": [109.770938, 18.319925]
			},
			"properties": {
				"Name": "蜈支洲岛",
				"Location": "海南·三亚·海棠区",
				"Price": 133,
				"Sale": 5458,
				"Address": "海南省三亚市林旺镇海棠湾蜈支洲岛",
				"Latitude": 109.770938,
				"Longitude": 18.319925,
				"Slogan": "私人订制主取景地"
			}
		},
		{
			"type": "Feature",
			"geometry": {
				"type": "Point",
				"coordinates": [118.174791, 30.978893]
			},
			"properties": {
				"Name": "马仁奇峰",
				"Location": "安徽·芜湖·南陵县",
				"Price": 85,
				"Sale": 5414,
				"Address": "安徽省芜湖市繁昌铜陵南陵三县交界处",
				"Latitude": 118.174791,
				"Longitude": 30.978893,
				"Slogan": "体验式旅游精品景区"
			}
		},
		{
			"type": "Feature",
			"geometry": {
				"type": "Point",
				"coordinates": [114.309047, 30.550272]
			},
			"properties": {
				"Name": "黄鹤楼",
				"Location": "湖北·武汉·武昌区",
				"Price": 65,
				"Sale": 5390,
				"Address": "湖北省武汉市武昌区蛇山",
				"Latitude": 114.309047,
				"Longitude": 30.550272,
				"Slogan": "孤帆远影碧空尽，唯见长江天际流"
			}
		},
		{
			"type": "Feature",
			"geometry": {
				"type": "Point",
				"coordinates": [109.208867, 18.296388]
			},
			"properties": {
				"Name": "南山文化旅游区",
				"Location": "海南·三亚·崖州区",
				"Price": 100,
				"Sale": 5354,
				"Address": "海南省三亚市崖城镇南山村",
				"Latitude": 109.208867,
				"Longitude": 18.296388,
				"Slogan": "108米的海上三面观音，三亚不容错过之旅"
			}
		},
		{
			"type": "Feature",
			"geometry": {
				"type": "Point",
				"coordinates": [113.335765, 23.0003]
			},
			"properties": {
				"Name": "长隆野生动物世界",
				"Location": "广东·广州·广州长隆旅游度假区",
				"Price": 270,
				"Sale": 5308,
				"Address": "广东省广州市番禺区迎宾路长隆旅游度假村旁",
				"Latitude": 113.335765,
				"Longitude": 23.0003,
				"Slogan": "熊猫三胞胎，与您共享欢乐时光"
			}
		},
		{
			"type": "Feature",
			"geometry": {
				"type": "Point",
				"coordinates": [122.38611, 29.98092]
			},
			"properties": {
				"Name": "普陀山",
				"Location": "浙江·舟山·普陀区",
				"Price": 78,
				"Sale": 5120,
				"Address": "浙江省舟山市普陀区",
				"Latitude": 122.38611,
				"Longitude": 29.98092,
				"Slogan": "海天佛国 观音道场 ——普陀山"
			}
		},
		{
			"type": "Feature",
			"geometry": {
				"type": "Point",
				"coordinates": [110.088712, 34.532247]
			},
			"properties": {
				"Name": "华山",
				"Location": "陕西·渭南·华阴市",
				"Price": 160,
				"Sale": 5035,
				"Address": "陕西省渭南市华阴市境内",
				"Latitude": 110.088712,
				"Longitude": 34.532247,
				"Slogan": "只有天在上，更无山与齐"
			}
		},
		{
			"type": "Feature",
			"geometry": {
				"type": "Point",
				"coordinates": [118.803688, 32.049877]
			},
			"properties": {
				"Name": "南京总统府",
				"Location": "江苏·南京·玄武区",
				"Price": 36,
				"Sale": 5015,
				"Address": "江苏省南京市玄武区长江路292号",
				"Latitude": 118.803688,
				"Longitude": 32.049877,
				"Slogan": "了解中国近代史，切记勿忘国耻"
			}
		},
		{
			"type": "Feature",
			"geometry": {
				"type": "Point",
				"coordinates": [121.50626, 31.245369]
			},
			"properties": {
				"Name": "东方明珠",
				"Location": "上海·上海·浦东新区",
				"Price": 85,
				"Sale": 4995,
				"Address": "上海市浦东新区世纪大道1号",
				"Latitude": 121.50626,
				"Longitude": 31.245369,
				"Slogan": "感受云端漫步，品味老上海风情"
			}
		},
		{
			"type": "Feature",
			"geometry": {
				"type": "Point",
				"coordinates": [114.072244, 23.265504]
			},
			"properties": {
				"Name": "罗浮山",
				"Location": "广东·惠州·博罗县",
				"Price": 54,
				"Sale": 4943,
				"Address": "广东省惠州市博罗县鹅岭北路11号",
				"Latitude": 114.072244,
				"Longitude": 23.265504,
				"Slogan": "一个难得的洞天福地"
			}
		},
		{
			"type": "Feature",
			"geometry": {
				"type": "Point",
				"coordinates": [115.792634, 28.583925]
			},
			"properties": {
				"Name": "南昌融创主题乐园（原万达主题乐园）",
				"Location": "江西·南昌·红谷滩新区",
				"Price": 110,
				"Sale": 4824,
				"Address": "江西省南昌市九龙湖新区南龙蟠街888号",
				"Latitude": 115.792634,
				"Longitude": 28.583925,
				"Slogan": "童话世界，从梦幻乐到真实"
			}
		},
		{
			"type": "Feature",
			"geometry": {
				"type": "Point",
				"coordinates": [120.449481, 36.07508]
			},
			"properties": {
				"Name": "青岛海昌极地海洋世界",
				"Location": "山东·青岛·崂山区",
				"Price": 209,
				"Sale": 4613,
				"Address": "山东省青岛市崂山区东海东路60号",
				"Latitude": 120.449481,
				"Longitude": 36.07508,
				"Slogan": "私会极地来的珍稀动物"
			}
		},
		{
			"type": "Feature",
			"geometry": {
				"type": "Point",
				"coordinates": [113.987249, 22.547732]
			},
			"properties": {
				"Name": "深圳欢乐谷",
				"Location": "广东·深圳·南山区",
				"Price": 85,
				"Sale": 4224,
				"Address": "广东省深圳市南山区华侨城侨城街1号",
				"Latitude": 113.987249,
				"Longitude": 22.547732,
				"Slogan": "狂欢无罪，够胆你就来"
			}
		},
		{
			"type": "Feature",
			"geometry": {
				"type": "Point",
				"coordinates": [104.113179, 30.71559]
			},
			"properties": {
				"Name": "成都动物园",
				"Location": "四川·成都·成华区",
				"Price": 20,
				"Sale": 4197,
				"Address": "四川省成都市成华区昭觉南路234号",
				"Latitude": 104.113179,
				"Longitude": 30.71559,
				"Slogan": "绿树成荫、湖光潋滟、鸟语花香、风景诱人"
			}
		},
		{
			"type": "Feature",
			"geometry": {
				"type": "Point",
				"coordinates": [102.986326, 31.406428]
			},
			"properties": {
				"Name": "毕棚沟",
				"Location": "四川·阿坝藏族羌族自治州·理县",
				"Price": 110,
				"Sale": 4132,
				"Address": "四川省阿坝州理县朴头乡朴头村88号",
				"Latitude": 102.986326,
				"Longitude": 31.406428,
				"Slogan": "知名的红叶观赏圣地，成都西北伊甸园"
			}
		},
		{
			"type": "Feature",
			"geometry": {
				"type": "Point",
				"coordinates": [116.314607, 40.01629]
			},
			"properties": {
				"Name": "圆明园",
				"Location": "北京·北京·海淀区",
				"Price": 25,
				"Sale": 4097,
				"Address": "北京市海淀区清华西路28号",
				"Latitude": 116.314607,
				"Longitude": 40.01629,
				"Slogan": "追忆昔日万园之园"
			}
		},
		{
			"type": "Feature",
			"geometry": {
				"type": "Point",
				"coordinates": [116.276887, 39.999497]
			},
			"properties": {
				"Name": "颐和园",
				"Location": "北京·北京·海淀区",
				"Price": 30,
				"Sale": 4064,
				"Address": "北京市海淀区新建宫门路19号",
				"Latitude": 116.276887,
				"Longitude": 39.999497,
				"Slogan": "保存完整的一座皇家行宫御苑"
			}
		},
		{
			"type": "Feature",
			"geometry": {
				"type": "Point",
				"coordinates": [103.578829, 30.903727]
			},
			"properties": {
				"Name": "青城山",
				"Location": "四川·成都·都江堰市",
				"Price": 78,
				"Sale": 4028,
				"Address": "四川省成都市都江堰市青城山路",
				"Latitude": 103.578829,
				"Longitude": 30.903727,
				"Slogan": "青城山下白素贞，洞中千年修此身"
			}
		},
		{
			"type": "Feature",
			"geometry": {
				"type": "Point",
				"coordinates": [120.587069, 31.341637]
			},
			"properties": {
				"Name": "虎丘",
				"Location": "江苏·苏州·金阊区",
				"Price": 78,
				"Sale": 4020,
				"Address": "江苏省苏州市金阊区山塘街虎丘山门内8号",
				"Latitude": 120.587069,
				"Longitude": 31.341637,
				"Slogan": "苏东坡说到苏州不游虎丘乃憾事也"
			}
		},
		{
			"type": "Feature",
			"geometry": {
				"type": "Point",
				"coordinates": [100.240547, 26.881159]
			},
			"properties": {
				"Name": "丽江古城",
				"Location": "云南·丽江·古城区",
				"Price": 28,
				"Sale": 4020,
				"Address": "云南省丽江市玉龙纳西族自治县东大街1号",
				"Latitude": 100.240547,
				"Longitude": 26.881159,
				"Slogan": "一座没有城墙的古城，依山傍水，风景秀丽"
			}
		},
		{
			"type": "Feature",
			"geometry": {
				"type": "Point",
				"coordinates": [109.659829, 18.25797]
			},
			"properties": {
				"Name": "亚龙湾热带天堂森林公园",
				"Location": "海南·三亚·吉阳区",
				"Price": 128,
				"Sale": 3964,
				"Address": "海南省三亚市吉阳镇亚龙湾国际旅游度假区",
				"Latitude": 109.659829,
				"Longitude": 18.25797,
				"Slogan": "非诚勿扰2拍摄地"
			}
		},
		{
			"type": "Feature",
			"geometry": {
				"type": "Point",
				"coordinates": [120.007837, 31.83031]
			},
			"properties": {
				"Name": "常州中华恐龙园",
				"Location": "江苏·常州·新北区",
				"Price": 197,
				"Sale": 3952,
				"Address": "江苏省常州市新北区河海东路60号",
				"Latitude": 120.007837,
				"Longitude": 31.83031,
				"Slogan": "以恐龙为主题的综合性游乐园"
			}
		},
		{
			"type": "Feature",
			"geometry": {
				"type": "Point",
				"coordinates": [109.219934, 34.370442]
			},
			"properties": {
				"Name": "长恨歌",
				"Location": "陕西·西安·华清宫",
				"Price": 223,
				"Sale": 3950,
				"Address": "陕西省西安市临潼区华清路38号华清池",
				"Latitude": 109.219934,
				"Longitude": 34.370442,
				"Slogan": "中国首部大型实景历史舞剧"
			}
		},
		{
			"type": "Feature",
			"geometry": {
				"type": "Point",
				"coordinates": [108.874543, 34.053388]
			},
			"properties": {
				"Name": "秦岭野生动物园",
				"Location": "陕西·西安·长安区",
				"Price": 48,
				"Sale": 3949,
				"Address": "陕西省西安市长安区滦镇",
				"Latitude": 108.874543,
				"Longitude": 34.053388,
				"Slogan": "走进大自然，亲近小动物"
			}
		},
		{
			"type": "Feature",
			"geometry": {
				"type": "Point",
				"coordinates": [103.342036, 29.522835]
			},
			"properties": {
				"Name": "峨眉山",
				"Location": "四川·乐山·峨眉山市",
				"Price": 160,
				"Sale": 3948,
				"Address": "四川省乐山峨眉山市峨眉山风景名胜区",
				"Latitude": 103.342036,
				"Longitude": 29.522835,
				"Slogan": "云上金顶，天下峨眉"
			}
		},
		{
			"type": "Feature",
			"geometry": {
				"type": "Point",
				"coordinates": [120.106626, 30.241491]
			},
			"properties": {
				"Name": "灵隐寺",
				"Location": "浙江·杭州",
				"Price": 45,
				"Sale": 3944,
				"Address": "浙江省杭州市法云弄1号",
				"Latitude": 120.106626,
				"Longitude": 30.241491,
				"Slogan": "江南禅宗“五山”之一"
			}
		},
		{
			"type": "Feature",
			"geometry": {
				"type": "Point",
				"coordinates": [116.342645, 39.50183]
			},
			"properties": {
				"Name": "北京野生动物园",
				"Location": "北京·北京·大兴区",
				"Price": 122,
				"Sale": 3925,
				"Address": "北京市大兴区一零六国道",
				"Latitude": 116.342645,
				"Longitude": 39.50183,
				"Slogan": "北京郊区的一座大型自然生态动物园"
			}
		},
		{
			"type": "Feature",
			"geometry": {
				"type": "Point",
				"coordinates": [109.218903, 34.369881]
			},
			"properties": {
				"Name": "华清宫",
				"Location": "陕西·西安·临潼区",
				"Price": 108,
				"Sale": 3776,
				"Address": "陕西省西安市临潼区华清路038号",
				"Latitude": 109.218903,
				"Longitude": 34.369881,
				"Slogan": "览盛唐宫阙，登骊山怀古，赏长恨歌舞"
			}
		},
		{
			"type": "Feature",
			"geometry": {
				"type": "Point",
				"coordinates": [118.123817, 24.447128]
			},
			"properties": {
				"Name": "厦门园林植物园",
				"Location": "福建·厦门·思明区",
				"Price": 30,
				"Sale": 3762,
				"Address": "福建省厦门市思明区虎园路25号",
				"Latitude": 118.123817,
				"Longitude": 24.447128,
				"Slogan": "一座秀丽多姿、四季飘香的游览园林"
			}
		},
		{
			"type": "Feature",
			"geometry": {
				"type": "Point",
				"coordinates": [121.503083, 31.234893]
			},
			"properties": {
				"Name": "黄浦江游览（十六铺码头）",
				"Location": "上海·上海",
				"Price": 80,
				"Sale": 3746,
				"Address": "上海市黄浦区中山东二路481号B1层",
				"Latitude": 121.503083,
				"Longitude": 31.234893,
				"Slogan": "夜游黄浦江，霓虹交错，赏魔都繁华景象"
			}
		},
		{
			"type": "Feature",
			"geometry": {
				"type": "Point",
				"coordinates": [110.485702, 29.122834]
			},
			"properties": {
				"Name": "张家界",
				"Location": "湖南·张家界",
				"Price": 49,
				"Sale": 3722,
				"Address": "湖南省张家界市",
				"Latitude": 110.485702,
				"Longitude": 29.122834,
				"Slogan": "湘鄂渝黔革命根据地的发源地和中心区域"
			}
		},
		{
			"type": "Feature",
			"geometry": {
				"type": "Point",
				"coordinates": [-1.7976931348623157e+308, -1.7976931348623157e+308]
			},
			"properties": {
				"Name": "新加坡环球影城",
				"Location": "新加坡·圣淘沙岛",
				"Price": 337,
				"Sale": 3721,
				"Address": "新加坡圣淘沙岛圣淘沙关口8号 8 Sentosa Gateway",
				"Latitude": 0,
				"Longitude": 0,
				"Slogan": ""
			}
		},
		{
			"type": "Feature",
			"geometry": {
				"type": "Point",
				"coordinates": [121.369411, 31.199264]
			},
			"properties": {
				"Name": "上海动物园",
				"Location": "上海·上海·长宁区",
				"Price": 37,
				"Sale": 3628,
				"Address": "上海市长宁区虹桥路2381号",
				"Latitude": 121.369411,
				"Longitude": 31.199264,
				"Slogan": "带你领略动物世界的纷繁多彩"
			}
		},
		{
			"type": "Feature",
			"geometry": {
				"type": "Point",
				"coordinates": [120.574213, 31.316189]
			},
			"properties": {
				"Name": "寒山寺",
				"Location": "江苏·苏州·金阊区",
				"Price": 17,
				"Sale": 3592,
				"Address": "江苏省苏州市金阊区寒山寺弄24号",
				"Latitude": 120.574213,
				"Longitude": 31.316189,
				"Slogan": "姑苏城外寒山寺，夜半钟声到客船"
			}
		},
		{
			"type": "Feature",
			"geometry": {
				"type": "Point",
				"coordinates": [105.010609, 37.47778]
			},
			"properties": {
				"Name": "沙坡头旅游区",
				"Location": "宁夏·中卫·沙坡头区",
				"Price": 75,
				"Sale": 3586,
				"Address": "宁夏回族自治区中卫市沙坡头区迎水桥镇",
				"Latitude": 105.010609,
				"Longitude": 37.47778,
				"Slogan": "欧亚大通道，古丝绸之路的必经之地"
			}
		},
		{
			"type": "Feature",
			"geometry": {
				"type": "Point",
				"coordinates": [118.073486, 24.452261]
			},
			"properties": {
				"Name": "鼓浪屿",
				"Location": "福建·厦门·思明区",
				"Price": 18,
				"Sale": 3569,
				"Address": "福建省厦门市思明区鼓浪屿",
				"Latitude": 118.073486,
				"Longitude": 24.452261,
				"Slogan": "琴之岛，乐之屿"
			}
		},
		{
			"type": "Feature",
			"geometry": {
				"type": "Point",
				"coordinates": [121.915647, 30.917713]
			},
			"properties": {
				"Name": "上海海昌海洋公园",
				"Location": "上海·上海·浦东新区",
				"Price": 159,
				"Sale": 3566,
				"Address": "上海市浦东新区南汇城银飞路166号",
				"Latitude": 121.915647,
				"Longitude": 30.917713,
				"Slogan": "感受海洋公园乐趣"
			}
		},
		{
			"type": "Feature",
			"geometry": {
				"type": "Point",
				"coordinates": [116.396015, 39.999061]
			},
			"properties": {
				"Name": "水立方",
				"Location": "北京·北京·奥林匹克公园",
				"Price": 49,
				"Sale": 3489,
				"Address": "北京市朝阳区天辰东路11号奥林匹克公园内",
				"Latitude": 116.396015,
				"Longitude": 39.999061,
				"Slogan": "中国的荣耀，阳光下的晶莹水滴"
			}
		},
		{
			"type": "Feature",
			"geometry": {
				"type": "Point",
				"coordinates": [121.577602, 38.884644]
			},
			"properties": {
				"Name": "大连圣亚海洋世界",
				"Location": "辽宁·大连·沙河口区",
				"Price": 155,
				"Sale": 3480,
				"Address": "辽宁省大连市沙河口区中山路608-6-8号",
				"Latitude": 121.577602,
				"Longitude": 38.884644,
				"Slogan": "乐游星海湾，大连浪漫地标"
			}
		},
		{
			"type": "Feature",
			"geometry": {
				"type": "Point",
				"coordinates": [106.589285, 29.563863]
			},
			"properties": {
				"Name": "重庆长江索道",
				"Location": "重庆·重庆·渝中区",
				"Price": 28,
				"Sale": 3404,
				"Address": "重庆市渝中区新华路151号",
				"Latitude": 106.589285,
				"Longitude": 29.563863,
				"Slogan": "万里长江的一条空中走廊，俯瞰滚滚长江"
			}
		},
		{
			"type": "Feature",
			"geometry": {
				"type": "Point",
				"coordinates": [120.635345, 31.327256]
			},
			"properties": {
				"Name": "狮子林",
				"Location": "江苏·苏州·平江区",
				"Price": 1,
				"Sale": 3360,
				"Address": "江苏省苏州市平江区园林路23号",
				"Latitude": 120.635345,
				"Longitude": 31.327256,
				"Slogan": "苏州园林中代表元朝艺术风格的私家园林"
			}
		},
		{
			"type": "Feature",
			"geometry": {
				"type": "Point",
				"coordinates": [106.078785, 38.620428]
			},
			"properties": {
				"Name": "镇北堡西部影城",
				"Location": "宁夏·银川·西夏区",
				"Price": 76,
				"Sale": 3326,
				"Address": "宁夏省银川市西夏区镇北堡西部影城",
				"Latitude": 106.078785,
				"Longitude": 38.620428,
				"Slogan": "邂逅“东方好莱坞”"
			}
		},
		{
			"type": "Feature",
			"geometry": {
				"type": "Point",
				"coordinates": [102.54549, 24.851305]
			},
			"properties": {
				"Name": "青鱼湾水上乐园",
				"Location": "云南·昆明",
				"Price": 105,
				"Sale": 3324,
				"Address": "云南省昆明市海口镇小海口收费站右转2公里处",
				"Latitude": 102.54549,
				"Longitude": 24.851305,
				"Slogan": "感受云南大型水上乐园的乐趣"
			}
		},
		{
			"type": "Feature",
			"geometry": {
				"type": "Point",
				"coordinates": [121.682278, 38.88534]
			},
			"properties": {
				"Name": "老虎滩海洋公园",
				"Location": "辽宁·大连·中山区",
				"Price": 50,
				"Sale": 3314,
				"Address": "辽宁省大连市中山区滨海中路9号",
				"Latitude": 121.682278,
				"Longitude": 38.88534,
				"Slogan": "一揽湾区山海，遍赏极地海洋"
			}
		},
		{
			"type": "Feature",
			"geometry": {
				"type": "Point",
				"coordinates": [118.079267, 24.461298]
			},
			"properties": {
				"Name": "鼓浪屿往返轮渡",
				"Location": "福建·厦门·鼓浪屿",
				"Price": 18,
				"Sale": 3306,
				"Address": "福建省厦门市思明区鹭江道",
				"Latitude": 118.079267,
				"Longitude": 24.461298,
				"Slogan": "鼓浪屿上岛必备神器"
			}
		},
		{
			"type": "Feature",
			"geometry": {
				"type": "Point",
				"coordinates": [114.176588, 22.241631]
			},
			"properties": {
				"Name": "香港海洋公园",
				"Location": "香港·香港·香港岛",
				"Price": 269,
				"Sale": 3249,
				"Address": "香港特别行政区香港仔黄竹坑南朗山",
				"Latitude": 114.176588,
				"Longitude": 22.241631,
				"Slogan": "妙趣横生的大型主题公园"
			}
		},
		{
			"type": "Feature",
			"geometry": {
				"type": "Point",
				"coordinates": [120.598937, 31.321719]
			},
			"properties": {
				"Name": "留园",
				"Location": "江苏·苏州·金阊区",
				"Price": 53,
				"Sale": 3228,
				"Address": "江苏省苏州金阊区阊门外留园路338号",
				"Latitude": 120.598937,
				"Longitude": 31.321719,
				"Slogan": "苏州园林中代表清朝艺术风格的私家园林"
			}
		},
		{
			"type": "Feature",
			"geometry": {
				"type": "Point",
				"coordinates": [117.12107, 36.247343]
			},
			"properties": {
				"Name": "泰山",
				"Location": "山东·泰安·泰山区",
				"Price": 98,
				"Sale": 3195,
				"Address": "山东省泰安市泰山区红门路54号",
				"Latitude": 117.12107,
				"Longitude": 36.247343,
				"Slogan": "会当凌绝顶，一览纵山小"
			}
		},
		{
			"type": "Feature",
			"geometry": {
				"type": "Point",
				"coordinates": [116.393097, 39.942341]
			},
			"properties": {
				"Name": "恭王府",
				"Location": "北京·北京·西城区",
				"Price": 61,
				"Sale": 3194,
				"Address": "北京市西城区什刹海前海西街17号",
				"Latitude": 116.393097,
				"Longitude": 39.942341,
				"Slogan": "一起去看看和珅家"
			}
		},
		{
			"type": "Feature",
			"geometry": {
				"type": "Point",
				"coordinates": [108.18029, 26.500009]
			},
			"properties": {
				"Name": "西江千户苗寨",
				"Location": "贵州·黔东南·雷山县",
				"Price": 65,
				"Sale": 3156,
				"Address": "贵州省凯里市黔东南苗族侗族自治州雷山县西江镇南贵村",
				"Latitude": 108.18029,
				"Longitude": 26.500009,
				"Slogan": "游览千户苗寨，感受苗族风情"
			}
		},
		{
			"type": "Feature",
			"geometry": {
				"type": "Point",
				"coordinates": [121.480215, 31.240715]
			},
			"properties": {
				"Name": "上海杜莎夫人蜡像馆",
				"Location": "上海·上海·黄浦区",
				"Price": 130,
				"Sale": 3147,
				"Address": "上海市黄浦区南京西路2-68号新世界商厦10楼",
				"Latitude": 121.480215,
				"Longitude": 31.240715,
				"Slogan": "走自己的红毯，与世界明星相遇"
			}
		},
		{
			"type": "Feature",
			"geometry": {
				"type": "Point",
				"coordinates": [108.961746, 34.230944]
			},
			"properties": {
				"Name": "陕西历史博物馆",
				"Location": "陕西·西安·雁塔区",
				"Price": 30,
				"Sale": 3081,
				"Address": "陕西省西安市雁塔区小寨东路91号",
				"Latitude": 108.961746,
				"Longitude": 34.230944,
				"Slogan": "在这里，见证中华文明"
			}
		},
		{
			"type": "Feature",
			"geometry": {
				"type": "Point",
				"coordinates": [116.390595, 39.949373]
			},
			"properties": {
				"Name": "什刹海",
				"Location": "北京·北京·西城区",
				"Price": 10,
				"Sale": 2997,
				"Address": "北京市西城区羊房胡同",
				"Latitude": 116.390595,
				"Longitude": 39.949373,
				"Slogan": "老北京的温柔乡，北京签到地"
			}
		},
		{
			"type": "Feature",
			"geometry": {
				"type": "Point",
				"coordinates": [107.773314, 29.423324]
			},
			"properties": {
				"Name": "武隆天坑地缝国家地质公园",
				"Location": "重庆·重庆·武隆县",
				"Price": 48,
				"Sale": 2967,
				"Address": "重庆市武隆县银杏大道武隆喀斯特旅游区",
				"Latitude": 107.773314,
				"Longitude": 29.423324,
				"Slogan": "反映地球演化历史的杰出范例"
			}
		},
		{
			"type": "Feature",
			"geometry": {
				"type": "Point",
				"coordinates": [112.894892, 39.168842]
			},
			"properties": {
				"Name": "雁门关",
				"Location": "山西·忻州·代县",
				"Price": 45,
				"Sale": 2958,
				"Address": "山西省忻州代县雁门关景区",
				"Latitude": 112.894892,
				"Longitude": 39.168842,
				"Slogan": "与宁武关、偏关合称为“外三关”"
			}
		},
		{
			"type": "Feature",
			"geometry": {
				"type": "Point",
				"coordinates": [103.779093, 29.550402]
			},
			"properties": {
				"Name": "乐山大佛",
				"Location": "四川·乐山·市中区",
				"Price": 79,
				"Sale": 2876,
				"Address": "四川省乐山市市中区凌云路2435号簏子街",
				"Latitude": 103.779093,
				"Longitude": 29.550402,
				"Slogan": "摩崖石刻造像"
			}
		},
		{
			"type": "Feature",
			"geometry": {
				"type": "Point",
				"coordinates": [112.44405, 37.41108]
			},
			"properties": {
				"Name": "乔家大院",
				"Location": "山西·晋中·祁县",
				"Price": 135,
				"Sale": 2865,
				"Address": "山西省晋中市祁县乔家堡村",
				"Latitude": 112.44405,
				"Longitude": 37.41108,
				"Slogan": "一栋带有历史印记的宅院"
			}
		},
		{
			"type": "Feature",
			"geometry": {
				"type": "Point",
				"coordinates": [105.67645, 25.994852]
			},
			"properties": {
				"Name": "黄果树瀑布",
				"Location": "贵州·安顺·黄果树风景名胜区",
				"Price": 130,
				"Sale": 2856,
				"Address": "贵州省安顺镇宁布依族苗族自治县黄果树瀑布",
				"Latitude": 105.67645,
				"Longitude": 25.994852,
				"Slogan": "是世界著名大瀑布之一"
			}
		},
		{
			"type": "Feature",
			"geometry": {
				"type": "Point",
				"coordinates": [116.423433, 39.954954]
			},
			"properties": {
				"Name": "雍和宫",
				"Location": "北京·北京·东城区",
				"Price": 50,
				"Sale": 2736,
				"Address": "北京市雍和宫大街12号",
				"Latitude": 116.423433,
				"Longitude": 39.954954,
				"Slogan": "佛光普照，巍峨壮观雍和宫"
			}
		},
		{
			"type": "Feature",
			"geometry": {
				"type": "Point",
				"coordinates": [116.500803, 39.873539]
			},
			"properties": {
				"Name": "北京欢乐谷",
				"Location": "北京·北京·朝阳区",
				"Price": 195,
				"Sale": 2711,
				"Address": "北京市朝阳区东四环小武基北路",
				"Latitude": 116.500803,
				"Longitude": 39.873539,
				"Slogan": "七大主题园区带你畅享北京欢乐谷"
			}
		},
		{
			"type": "Feature",
			"geometry": {
				"type": "Point",
				"coordinates": [107.25892, 29.915884]
			},
			"properties": {
				"Name": "重庆长寿湖",
				"Location": "重庆·重庆·长寿区",
				"Price": 23,
				"Sale": 2658,
				"Address": "重庆市长寿区长寿湖",
				"Latitude": 107.25892,
				"Longitude": 29.915884,
				"Slogan": "湖面辽阔，碧波万顷，水天一色，别具情趣"
			}
		},
		{
			"type": "Feature",
			"geometry": {
				"type": "Point",
				"coordinates": [113.33789, 23.005235]
			},
			"properties": {
				"Name": "长隆欢乐世界",
				"Location": "广东·广州·广州长隆旅游度假区",
				"Price": 179,
				"Sale": 2630,
				"Address": "广东省广州市番禺区长隆旅游度假区内",
				"Latitude": 113.33789,
				"Longitude": 23.005235,
				"Slogan": "垂直过山车等挑战你的青春荷尔蒙"
			}
		},
		{
			"type": "Feature",
			"geometry": {
				"type": "Point",
				"coordinates": [110.225955, 19.931249]
			},
			"properties": {
				"Name": "火山口国家地质公园",
				"Location": "海南·海口·秀英区",
				"Price": 30,
				"Sale": 2606,
				"Address": "海南省海口市秀英区石山镇",
				"Latitude": 110.225955,
				"Longitude": 19.931249,
				"Slogan": "世界地质公园，万年火山奇观"
			}
		},
		{
			"type": "Feature",
			"geometry": {
				"type": "Point",
				"coordinates": [106.695326, 26.339051]
			},
			"properties": {
				"Name": "青岩古镇",
				"Location": "贵州·贵阳·花溪区",
				"Price": 40,
				"Sale": 2597,
				"Address": "贵阳市花溪区交通路240号",
				"Latitude": 106.695326,
				"Longitude": 26.339051,
				"Slogan": "由土城而渐成街巷纵横错综之石城"
			}
		},
		{
			"type": "Feature",
			"geometry": {
				"type": "Point",
				"coordinates": [121.512867, 31.239758]
			},
			"properties": {
				"Name": "上海中心大厦",
				"Location": "上海·上海·浦东新区",
				"Price": 139,
				"Sale": 2595,
				"Address": "上海市浦东新区陆家嘴环路479号",
				"Latitude": 121.512867,
				"Longitude": 31.239758,
				"Slogan": "超高层地标式摩天大楼"
			}
		},
		{
			"type": "Feature",
			"geometry": {
				"type": "Point",
				"coordinates": [116.999461, 28.090447]
			},
			"properties": {
				"Name": "龙虎山风景区",
				"Location": "江西·鹰潭",
				"Price": 85,
				"Sale": 2570,
				"Address": "江西省鹰潭市西南20公里处贵溪市境内",
				"Latitude": 116.999461,
				"Longitude": 28.090447,
				"Slogan": "神秘的古越族文明，体验绝美的自然风光"
			}
		},
		{
			"type": "Feature",
			"geometry": {
				"type": "Point",
				"coordinates": [109.201238, 30.411298]
			},
			"properties": {
				"Name": "恩施大峡谷",
				"Location": "湖北·恩施·恩施市",
				"Price": 180,
				"Sale": 2552,
				"Address": "湖北省恩施市西北部沐抚办事处境内",
				"Latitude": 109.201238,
				"Longitude": 30.411298,
				"Slogan": "有天坑，有地缝，有天生桥，有溶洞"
			}
		},
		{
			"type": "Feature",
			"geometry": {
				"type": "Point",
				"coordinates": [116.57035, 40.437612]
			},
			"properties": {
				"Name": "慕田峪长城",
				"Location": "北京·北京·怀柔区",
				"Price": 40,
				"Sale": 2540,
				"Address": "北京市怀柔区慕田峪村",
				"Latitude": 116.57035,
				"Longitude": 40.437612,
				"Slogan": "电影《非诚勿扰》取景地"
			}
		},
		{
			"type": "Feature",
			"geometry": {
				"type": "Point",
				"coordinates": [119.450276, 32.404901]
			},
			"properties": {
				"Name": "个园",
				"Location": "江苏·扬州·广陵区",
				"Price": 38,
				"Sale": 2522,
				"Address": "江苏省扬州市广陵区盐阜东路10号",
				"Latitude": 119.450276,
				"Longitude": 32.404901,
				"Slogan": "聆听石头与竹子的低语"
			}
		},
		{
			"type": "Feature",
			"geometry": {
				"type": "Point",
				"coordinates": [104.736904, 31.859569]
			},
			"properties": {
				"Name": "百年好合爱情谷",
				"Location": "四川·绵阳·江油市",
				"Price": 26,
				"Sale": 2511,
				"Address": "四川省绵阳江油市大康镇",
				"Latitude": 104.736904,
				"Longitude": 31.859569,
				"Slogan": "见证忠贞爱情的爱情谷"
			}
		},
		{
			"type": "Feature",
			"geometry": {
				"type": "Point",
				"coordinates": [110.459244, 29.336908]
			},
			"properties": {
				"Name": "张家界国家森林公园",
				"Location": "湖南·张家界·武陵源区",
				"Price": 62,
				"Sale": 2481,
				"Address": "湖南省张家界市武陵源区",
				"Latitude": 110.459244,
				"Longitude": 29.336908,
				"Slogan": "三千奇峰，八百秀水"
			}
		},
		{
			"type": "Feature",
			"geometry": {
				"type": "Point",
				"coordinates": [121.015977, 31.107866]
			},
			"properties": {
				"Name": "东方绿舟",
				"Location": "上海·上海·青浦区",
				"Price": 43,
				"Sale": 2444,
				"Address": "上海市青浦区沪青平公路6888号",
				"Latitude": 121.015977,
				"Longitude": 31.107866,
				"Slogan": "全国首屈一指的青少年校外教育营地"
			}
		},
		{
			"type": "Feature",
			"geometry": {
				"type": "Point",
				"coordinates": [121.998989, 39.083584]
			},
			"properties": {
				"Name": "海昌发现王国",
				"Location": "辽宁·大连·金石滩旅游度假区",
				"Price": 111,
				"Sale": 2436,
				"Address": "辽宁省大连市金州区金石路36号金石滩国家旅游度假区",
				"Latitude": 121.998989,
				"Longitude": 39.083584,
				"Slogan": "发现快乐，发现王国"
			}
		},
		{
			"type": "Feature",
			"geometry": {
				"type": "Point",
				"coordinates": [125.453307, 43.779397]
			},
			"properties": {
				"Name": "长影世纪城",
				"Location": "吉林·长春·南关区",
				"Price": 120,
				"Sale": 2420,
				"Address": "吉林省长春市净月开发区长双公路",
				"Latitude": 125.453307,
				"Longitude": 43.779397,
				"Slogan": "北方冬天玩出狂拽酷炫"
			}
		},
		{
			"type": "Feature",
			"geometry": {
				"type": "Point",
				"coordinates": [108.968257, 34.309657]
			},
			"properties": {
				"Name": "大明宫国家遗址公园",
				"Location": "陕西·西安·新城区",
				"Price": 82,
				"Sale": 2409,
				"Address": "陕西省西安市新城区自强东路585号大明宫国家遗址公园丹凤门",
				"Latitude": 108.968257,
				"Longitude": 34.309657,
				"Slogan": "唐代长安城禁苑"
			}
		},
		{
			"type": "Feature",
			"geometry": {
				"type": "Point",
				"coordinates": [120.335671, 36.060933]
			},
			"properties": {
				"Name": "海军博物馆",
				"Location": "山东·青岛·市南区",
				"Price": 27,
				"Sale": 2397,
				"Address": "山东省青岛市市南区莱阳路8号",
				"Latitude": 120.335671,
				"Longitude": 36.060933,
				"Slogan": "一座大型专业性军事博物馆"
			}
		},
		{
			"type": "Feature",
			"geometry": {
				"type": "Point",
				"coordinates": [113.433752, 35.426392]
			},
			"properties": {
				"Name": "云台山",
				"Location": "河南·焦作·修武县",
				"Price": 180,
				"Sale": 2388,
				"Address": "河南省焦作市修武县修武正北30公里方庄",
				"Latitude": 113.433752,
				"Longitude": 35.426392,
				"Slogan": "山水圣地，地质奇观，门票3天有效"
			}
		},
		{
			"type": "Feature",
			"geometry": {
				"type": "Point",
				"coordinates": [104.040108, 30.729181]
			},
			"properties": {
				"Name": "成都欢乐谷",
				"Location": "四川·成都·金牛区",
				"Price": 68,
				"Sale": 2375,
				"Address": "四川省成都市金牛区西华大道16号",
				"Latitude": 104.040108,
				"Longitude": 30.729181,
				"Slogan": "时尚、动感、欢乐、梦幻"
			}
		},
		{
			"type": "Feature",
			"geometry": {
				"type": "Point",
				"coordinates": [114.29107, 31.183857]
			},
			"properties": {
				"Name": "木兰天池",
				"Location": "湖北·武汉·黄陂区",
				"Price": 52,
				"Sale": 2373,
				"Address": "湖北省武汉市黄陂区长轩岭镇石门山",
				"Latitude": 114.29107,
				"Longitude": 31.183857,
				"Slogan": "游览浪漫山水，高峡人家和森林公园"
			}
		},
		{
			"type": "Feature",
			"geometry": {
				"type": "Point",
				"coordinates": [113.370389, 23.045577]
			},
			"properties": {
				"Name": "广东科学中心",
				"Location": "广东·广州·番禺",
				"Price": 45,
				"Sale": 2372,
				"Address": "广东省广州市番禺区大学城西六路168号",
				"Latitude": 113.370389,
				"Longitude": 23.045577,
				"Slogan": "感受科技，聆听科技时尚的声音"
			}
		},
		{
			"type": "Feature",
			"geometry": {
				"type": "Point",
				"coordinates": [115.994028, 40.348353]
			},
			"properties": {
				"Name": "八达岭古长城",
				"Location": "北京·北京·延庆县",
				"Price": 42,
				"Sale": 2360,
				"Address": "北京市延庆县八达岭镇东沟村",
				"Latitude": 115.994028,
				"Longitude": 40.348353,
				"Slogan": "八达岭古长城杏花节'杏好有你'开幕啦"
			}
		},
		{
			"type": "Feature",
			"geometry": {
				"type": "Point",
				"coordinates": [113.331236, 23.005835]
			},
			"properties": {
				"Name": "长隆水上乐园",
				"Location": "广东·广州·广州长隆旅游度假区",
				"Price": 326,
				"Sale": 2358,
				"Address": "广东省广州市番禺区迎宾路长隆旅游度假区内",
				"Latitude": 113.331236,
				"Longitude": 23.005835,
				"Slogan": "全球必去的水上乐园"
			}
		},
		{
			"type": "Feature",
			"geometry": {
				"type": "Point",
				"coordinates": [115.745284, 28.803352]
			},
			"properties": {
				"Name": "梅岭景区",
				"Location": "江西·南昌·湾里区",
				"Price": 12,
				"Sale": 2352,
				"Address": "江西省南昌市西郊30公里处",
				"Latitude": 115.745284,
				"Longitude": 28.803352,
				"Slogan": "拥有“翠、幽、俊、奇”的绝美景观"
			}
		},
		{
			"type": "Feature",
			"geometry": {
				"type": "Point",
				"coordinates": [110.206451, 18.582197]
			},
			"properties": {
				"Name": "海南分界洲岛旅游区",
				"Location": "海南·陵水",
				"Price": 40,
				"Sale": 2328,
				"Address": "海南省三亚市东北部分界洲岛",
				"Latitude": 110.206451,
				"Longitude": 18.582197,
				"Slogan": "海水清澈，拥有众多珍稀动植物的“美女岛”"
			}
		},
		{
			"type": "Feature",
			"geometry": {
				"type": "Point",
				"coordinates": [118.03725, 30.009298]
			},
			"properties": {
				"Name": "木坑竹海",
				"Location": "安徽·黄山·黟县",
				"Price": 35,
				"Sale": 2285,
				"Address": "安徽省黄山市黟县宏村木坑",
				"Latitude": 118.03725,
				"Longitude": 30.009298,
				"Slogan": "卧虎藏龙拍摄地，恰如世外桃源般令人神往"
			}
		},
		{
			"type": "Feature",
			"geometry": {
				"type": "Point",
				"coordinates": [117.668338, 39.01374]
			},
			"properties": {
				"Name": "天津海昌极地海洋公园",
				"Location": "天津·天津·滨海新区",
				"Price": 210,
				"Sale": 2280,
				"Address": "天津市滨海新区响螺湾中心商务区61号",
				"Latitude": 117.668338,
				"Longitude": 39.01374,
				"Slogan": "快来与海洋动物亲密接触"
			}
		},
		{
			"type": "Feature",
			"geometry": {
				"type": "Point",
				"coordinates": [103.332585, 24.823046]
			},
			"properties": {
				"Name": "石林",
				"Location": "云南·昆明·石林彝族自治县",
				"Price": 1,
				"Sale": 2280,
				"Address": "云南省昆明市石林彝族自治县境内",
				"Latitude": 103.332585,
				"Longitude": 24.823046,
				"Slogan": "怪石林立，突兀峥嵘，姿态各异"
			}
		},
		{
			"type": "Feature",
			"geometry": {
				"type": "Point",
				"coordinates": [116.404487, 40.000484]
			},
			"properties": {
				"Name": "鸟巢",
				"Location": "北京·北京·奥林匹克公园",
				"Price": 49,
				"Sale": 2270,
				"Address": "北京市朝阳区国家体育场南路1号奥林匹克公园内",
				"Latitude": 116.404487,
				"Longitude": 40.000484,
				"Slogan": "北京的地标，中华民族崛起的象征"
			}
		},
		{
			"type": "Feature",
			"geometry": {
				"type": "Point",
				"coordinates": [118.166695, 30.146842]
			},
			"properties": {
				"Name": "太平索道",
				"Location": "安徽·黄山·黄山风景区",
				"Price": 190,
				"Sale": 2249,
				"Address": "安徽省黄山市黄山景区",
				"Latitude": 118.166695,
				"Longitude": 30.146842,
				"Slogan": "上揽云天雾海，下拾阡陌平川"
			}
		},
		{
			"type": "Feature",
			"geometry": {
				"type": "Point",
				"coordinates": [105.781827, 28.463135]
			},
			"properties": {
				"Name": "赤水游客中心",
				"Location": "贵州·遵义·赤水市",
				"Price": 9,
				"Sale": 2238,
				"Address": "贵州省遵义赤水市",
				"Latitude": 105.781827,
				"Longitude": 28.463135,
				"Slogan": "观瀑布，游竹海，同时体味长征历史文化"
			}
		},
		{
			"type": "Feature",
			"geometry": {
				"type": "Point",
				"coordinates": [113.013372, 29.3586]
			},
			"properties": {
				"Name": "岳阳楼—君山岛景区",
				"Location": "湖南·岳阳·岳阳楼区",
				"Price": 66,
				"Sale": 2217,
				"Address": "湖南省岳阳市岳阳楼区洞庭北路60号",
				"Latitude": 113.013372,
				"Longitude": 29.3586,
				"Slogan": "未到江南先一笑，岳阳楼上对君山"
			}
		},
		{
			"type": "Feature",
			"geometry": {
				"type": "Point",
				"coordinates": [107.755004, 34.112416]
			},
			"properties": {
				"Name": "宝鸡红河谷",
				"Location": "陕西·宝鸡·眉县",
				"Price": 46,
				"Sale": 2205,
				"Address": "陕西省宝鸡市眉县营头镇",
				"Latitude": 107.755004,
				"Longitude": 34.112416,
				"Slogan": "天下美景一谷收"
			}
		},
		{
			"type": "Feature",
			"geometry": {
				"type": "Point",
				"coordinates": [121.50818, 31.246234]
			},
			"properties": {
				"Name": "上海海洋水族馆",
				"Location": "上海·上海·浦东新区",
				"Price": 145,
				"Sale": 2189,
				"Address": "上海市浦东新区陆家嘴环路1388号",
				"Latitude": 121.50818,
				"Longitude": 31.246234,
				"Slogan": "穿越世界，来一次终生难忘的海洋之旅"
			}
		},
		{
			"type": "Feature",
			"geometry": {
				"type": "Point",
				"coordinates": [120.066014, 35.988067]
			},
			"properties": {
				"Name": "青岛森林野生动物世界",
				"Location": "山东·青岛·黄岛区",
				"Price": 82,
				"Sale": 2180,
				"Address": "山东省青岛市黄岛区小珠山风景区",
				"Latitude": 120.066014,
				"Longitude": 35.988067,
				"Slogan": "大型动物表演、竞技、运动会，其乐无穷"
			}
		},
		{
			"type": "Feature",
			"geometry": {
				"type": "Point",
				"coordinates": [110.253188, 19.774941]
			},
			"properties": {
				"Name": "海南热带野生动植物园",
				"Location": "海南·海口·秀英区",
				"Price": 120,
				"Sale": 2180,
				"Address": "海南省海口市秀英区东山镇",
				"Latitude": 110.253188,
				"Longitude": 19.774941,
				"Slogan": "岛屿型热带雨林动植物大观园"
			}
		},
		{
			"type": "Feature",
			"geometry": {
				"type": "Point",
				"coordinates": [109.137718, 21.425147]
			},
			"properties": {
				"Name": "涠洲岛船票",
				"Location": "广西·北海·涠洲岛",
				"Price": 105,
				"Sale": 2177,
				"Address": "广西壮族自治区北海市海城区银滩旅游区18号",
				"Latitude": 109.137718,
				"Longitude": 21.425147,
				"Slogan": "日射涠洲廓，风斜别岛洋"
			}
		},
		{
			"type": "Feature",
			"geometry": {
				"type": "Point",
				"coordinates": [121.403563, 31.230472]
			},
			"properties": {
				"Name": "上海长风海洋世界",
				"Location": "上海·上海·普陀区",
				"Price": 138,
				"Sale": 2168,
				"Address": "上海市普陀区大渡河路451号",
				"Latitude": 121.403563,
				"Longitude": 31.230472,
				"Slogan": "和奥莉一起看魔鬼鱼啦"
			}
		},
		{
			"type": "Feature",
			"geometry": {
				"type": "Point",
				"coordinates": [119.933991, 31.704617]
			},
			"properties": {
				"Name": "淹城野生动物世界",
				"Location": "江苏·常州·武进区",
				"Price": 170,
				"Sale": 2159,
				"Address": "江苏省常州市武进区武宣中路588号",
				"Latitude": 119.933991,
				"Longitude": 31.704617,
				"Slogan": "可以自驾游览的野生动物园"
			}
		},
		{
			"type": "Feature",
			"geometry": {
				"type": "Point",
				"coordinates": [104.699002, 31.675048]
			},
			"properties": {
				"Name": "太白碑林",
				"Location": "四川·绵阳·江油市",
				"Price": 36,
				"Sale": 2151,
				"Address": "四川省江油市青莲镇天宝山",
				"Latitude": 104.699002,
				"Longitude": 31.675048,
				"Slogan": "弘扬李白文化 展现李白文化"
			}
		},
		{
			"type": "Feature",
			"geometry": {
				"type": "Point",
				"coordinates": [114.286853, 22.638729]
			},
			"properties": {
				"Name": "东部华侨城茶溪谷",
				"Location": "广东·深圳·东部华侨城",
				"Price": 115,
				"Sale": 2127,
				"Address": "广东省深圳市盐田区大梅沙东部华侨城",
				"Latitude": 114.286853,
				"Longitude": 22.638729,
				"Slogan": "茶、禅、花、竹，绿的世界，花的世界"
			}
		},
		{
			"type": "Feature",
			"geometry": {
				"type": "Point",
				"coordinates": [116.020213, 40.367229]
			},
			"properties": {
				"Name": "八达岭长城缆车",
				"Location": "北京·北京·八达岭长城",
				"Price": 140,
				"Sale": 2127,
				"Address": "北京市延庆县军都山关沟古道北口八达岭长城景区内",
				"Latitude": 116.020213,
				"Longitude": 40.367229,
				"Slogan": "巍峨雄伟尽收眼底"
			}
		},
		{
			"type": "Feature",
			"geometry": {
				"type": "Point",
				"coordinates": [116.759345, 40.638721]
			},
			"properties": {
				"Name": "清凉谷风景区",
				"Location": "北京·北京·密云县",
				"Price": 40,
				"Sale": 2124,
				"Address": "北京市密云县四合堂地区",
				"Latitude": 116.759345,
				"Longitude": 40.638721,
				"Slogan": "幽谷听溪，寻芳青岗，释放年轻的自我"
			}
		},
		{
			"type": "Feature",
			"geometry": {
				"type": "Point",
				"coordinates": [119.744673, 30.627035]
			},
			"properties": {
				"Name": "杭州Hello Kitty乐园",
				"Location": "浙江·湖州·安吉县",
				"Price": 210,
				"Sale": 2120,
				"Address": "浙江省湖州市安吉县天使大道1号",
				"Latitude": 119.744673,
				"Longitude": 30.627035,
				"Slogan": "满眼的凯蒂猫，整个公园都是萌萌哒"
			}
		},
		{
			"type": "Feature",
			"geometry": {
				"type": "Point",
				"coordinates": [107.799067, 29.408789]
			},
			"properties": {
				"Name": "龙水峡地缝",
				"Location": "重庆·重庆·武隆天坑地缝国家地质公园",
				"Price": 111,
				"Sale": 2117,
				"Address": "重庆市武隆县仙女山南麓",
				"Latitude": 107.799067,
				"Longitude": 29.408789,
				"Slogan": "天坑地缝不分家"
			}
		},
		{
			"type": "Feature",
			"geometry": {
				"type": "Point",
				"coordinates": [110.482089, 29.072408]
			},
			"properties": {
				"Name": "天门山国家森林公园",
				"Location": "湖南·张家界·永定区",
				"Price": 49,
				"Sale": 2099,
				"Address": "湖南省张家界市永定区天门山索道站",
				"Latitude": 110.482089,
				"Longitude": 29.072408,
				"Slogan": "穿越云霄的旅行"
			}
		},
		{
			"type": "Feature",
			"geometry": {
				"type": "Point",
				"coordinates": [117.190701, 29.28948]
			},
			"properties": {
				"Name": "景德镇古窑民俗博览区",
				"Location": "江西·景德镇·昌江区",
				"Price": 80,
				"Sale": 2075,
				"Address": "江西省景德镇市昌江区瓷都大道古窑路1号",
				"Latitude": 117.190701,
				"Longitude": 29.28948,
				"Slogan": "探索中国千年陶瓷文化的脉络"
			}
		},
		{
			"type": "Feature",
			"geometry": {
				"type": "Point",
				"coordinates": [120.345446, 29.162213]
			},
			"properties": {
				"Name": "横店影视城",
				"Location": "浙江·金华·东阳市",
				"Price": 110,
				"Sale": 2072,
				"Address": "浙江省金华东阳市横店镇横店影视城",
				"Latitude": 120.345446,
				"Longitude": 29.162213,
				"Slogan": "被誉为“中国好莱坞”"
			}
		},
		{
			"type": "Feature",
			"geometry": {
				"type": "Point",
				"coordinates": [113.979114, 22.604906]
			},
			"properties": {
				"Name": "深圳野生动物园",
				"Location": "广东·深圳·南山区",
				"Price": 80,
				"Sale": 2055,
				"Address": "广东省深圳市南山区西丽镇西丽路4065号",
				"Latitude": 113.979114,
				"Longitude": 22.604906,
				"Slogan": "放养式动物园让你和动物们“零距离”"
			}
		},
		{
			"type": "Feature",
			"geometry": {
				"type": "Point",
				"coordinates": [114.238967, 31.279625]
			},
			"properties": {
				"Name": "锦里沟",
				"Location": "湖北·武汉·黄陂区",
				"Price": 54,
				"Sale": 2049,
				"Address": "湖北省武汉市黄陂区蔡店乡道士冲村",
				"Latitude": 114.238967,
				"Longitude": 31.279625,
				"Slogan": "看樱花桃花次第盛放，感受土苗文化风情"
			}
		},
		{
			"type": "Feature",
			"geometry": {
				"type": "Point",
				"coordinates": [113.993478, 22.538498]
			},
			"properties": {
				"Name": "锦绣中华民俗村",
				"Location": "广东·深圳·华侨城",
				"Price": 65,
				"Sale": 2048,
				"Address": "广东省深圳市南山区深南大道9003号华侨城锦绣中华苏州街",
				"Latitude": 113.993478,
				"Longitude": 22.538498,
				"Slogan": "深圳小人国——实景微缩景区候选世界纪录"
			}
		},
		{
			"type": "Feature",
			"geometry": {
				"type": "Point",
				"coordinates": [118.200449, 30.127081]
			},
			"properties": {
				"Name": "云谷索道",
				"Location": "安徽·黄山·黄山风景区",
				"Price": 190,
				"Sale": 2033,
				"Address": "安徽省黄山市黄山风景区",
				"Latitude": 118.200449,
				"Longitude": 30.127081,
				"Slogan": "先进的单线循环脱挂抱索器吊厢式索道设备"
			}
		},
		{
			"type": "Feature",
			"geometry": {
				"type": "Point",
				"coordinates": [113.553944, 22.105303]
			},
			"properties": {
				"Name": "珠海长隆国际海洋度假区",
				"Location": "广东·珠海·金湾区",
				"Price": 225,
				"Sale": 2028,
				"Address": "广东省珠海市横琴岛南端环岛路长隆大道东侧",
				"Latitude": 113.553944,
				"Longitude": 22.105303,
				"Slogan": "爸爸，放假我们就去这儿"
			}
		},
		{
			"type": "Feature",
			"geometry": {
				"type": "Point",
				"coordinates": [102.795122, 25.101678]
			},
			"properties": {
				"Name": "云南野生动物园",
				"Location": "云南·昆明·盘龙区",
				"Price": 98,
				"Sale": 2024,
				"Address": "云南省昆明市盘龙区穿金路",
				"Latitude": 102.795122,
				"Longitude": 25.101678,
				"Slogan": "我国大型野生动物保护研究基地"
			}
		},
		{
			"type": "Feature",
			"geometry": {
				"type": "Point",
				"coordinates": [118.113008, 24.435089]
			},
			"properties": {
				"Name": "胡里山炮台",
				"Location": "福建·厦门·思明区",
				"Price": 21,
				"Sale": 2000,
				"Address": "福建省厦门市思明区曾厝垵路2号",
				"Latitude": 118.113008,
				"Longitude": 24.435089,
				"Slogan": "八闽门户、天南锁钥"
			}
		},
		{
			"type": "Feature",
			"geometry": {
				"type": "Point",
				"coordinates": [112.479566, 34.564212]
			},
			"properties": {
				"Name": "龙门石窟",
				"Location": "河南·洛阳·洛龙区",
				"Price": 100,
				"Sale": 1990,
				"Address": "河南省洛阳市洛龙区龙门中街13号",
				"Latitude": 112.479566,
				"Longitude": 34.564212,
				"Slogan": "世界文化遗产 中国石刻艺术宝库"
			}
		},
		{
			"type": "Feature",
			"geometry": {
				"type": "Point",
				"coordinates": [116.34331, 39.947983]
			},
			"properties": {
				"Name": "北京动物园",
				"Location": "北京·北京·西城区",
				"Price": 27,
				"Sale": 1944,
				"Address": "北京市西城区西直门外大街137号",
				"Latitude": 116.34331,
				"Longitude": 39.947983,
				"Slogan": "百余种动物，让你离自然更近"
			}
		},
		{
			"type": "Feature",
			"geometry": {
				"type": "Point",
				"coordinates": [120.725441, 31.163773]
			},
			"properties": {
				"Name": "同里古镇",
				"Location": "江苏·苏州·吴江市",
				"Price": 35,
				"Sale": 1924,
				"Address": "江苏省苏州市吴江市同里镇",
				"Latitude": 120.725441,
				"Longitude": 31.163773,
				"Slogan": "世界同里，东方小威尼斯"
			}
		},
		{
			"type": "Feature",
			"geometry": {
				"type": "Point",
				"coordinates": [117.305247, 36.493204]
			},
			"properties": {
				"Name": "九如山风景区",
				"Location": "山东·济南·历城区",
				"Price": 110,
				"Sale": 1908,
				"Address": "山东省济南市历城区西营镇葫芦峪村",
				"Latitude": 117.305247,
				"Longitude": 36.493204,
				"Slogan": "生态观光，休闲娱乐，游憩度假为一体"
			}
		},
		{
			"type": "Feature",
			"geometry": {
				"type": "Point",
				"coordinates": [118.228912, 30.117235]
			},
			"properties": {
				"Name": "黄山翡翠谷",
				"Location": "安徽·黄山·黄山区",
				"Price": 60,
				"Sale": 1902,
				"Address": "安徽省黄山市黄山区汤口镇翡翠新村001幢",
				"Latitude": 118.228912,
				"Longitude": 30.117235,
				"Slogan": "人间瑶池仙境，天下奇景丽水"
			}
		},
		{
			"type": "Feature",
			"geometry": {
				"type": "Point",
				"coordinates": [113.339108, 23.00889]
			},
			"properties": {
				"Name": "长隆国际大马戏剧院",
				"Location": "广东·广州·广州长隆旅游度假区",
				"Price": 311,
				"Sale": 1898,
				"Address": "广东省广州市番禺区迎宾路长隆欢乐世界东门侧",
				"Latitude": 113.339108,
				"Longitude": 23.00889,
				"Slogan": "汇粹全球马戏精华"
			}
		},
		{
			"type": "Feature",
			"geometry": {
				"type": "Point",
				"coordinates": [112.948713, 34.512389]
			},
			"properties": {
				"Name": "少林寺",
				"Location": "河南·郑州·嵩山",
				"Price": 60,
				"Sale": 1898,
				"Address": "河南省郑州登封市西北13公里嵩山南麓",
				"Latitude": 112.948713,
				"Longitude": 34.512389,
				"Slogan": "登顶中岳嵩山，一览天下胜景，领略禅宗教法"
			}
		},
		{
			"type": "Feature",
			"geometry": {
				"type": "Point",
				"coordinates": [113.277534, 23.121129]
			},
			"properties": {
				"Name": "珠江夜游",
				"Location": "广东·广州·天河区",
				"Price": 188,
				"Sale": 1886,
				"Address": "广东省广州市越秀区",
				"Latitude": 113.277534,
				"Longitude": 23.121129,
				"Slogan": "珠江夜景，游广州必不可少的景点"
			}
		},
		{
			"type": "Feature",
			"geometry": {
				"type": "Point",
				"coordinates": [113.5746076, 22.1556489]
			},
			"properties": {
				"Name": "澳门水舞间演出",
				"Location": "澳门·澳门·新濠天地",
				"Price": 455,
				"Sale": 1886,
				"Address": "澳门特别行政区凼仔岛氹连贯公路新濠天地水舞间剧院",
				"Latitude": 113.5746076,
				"Longitude": 22.1556489,
				"Slogan": "带你进入前所未见的视觉震撼新里程"
			}
		},
		{
			"type": "Feature",
			"geometry": {
				"type": "Point",
				"coordinates": [120.760473, 37.832144]
			},
			"properties": {
				"Name": "蓬莱阁",
				"Location": "山东·烟台·蓬莱市",
				"Price": 102,
				"Sale": 1878,
				"Address": "山东省烟台蓬莱市迎宾路7号",
				"Latitude": 120.760473,
				"Longitude": 37.832144,
				"Slogan": "道教传说中著名的神仙住所和人间仙境"
			}
		},
		{
			"type": "Feature",
			"geometry": {
				"type": "Point",
				"coordinates": [114.299102, 27.60543]
			},
			"properties": {
				"Name": "明月山",
				"Location": "江西·宜春·袁州区",
				"Price": 85,
				"Sale": 1858,
				"Address": "江西省宜春市袁州区温汤镇",
				"Latitude": 114.299102,
				"Longitude": 27.60543,
				"Slogan": "嫦娥的故乡，传说是当年嫦娥奔月的地方"
			}
		},
		{
			"type": "Feature",
			"geometry": {
				"type": "Point",
				"coordinates": [117.940068, 41.002781]
			},
			"properties": {
				"Name": "避暑山庄",
				"Location": "河北·承德·双桥区",
				"Price": 50,
				"Sale": 1856,
				"Address": "河北省承德市双桥区丽正门大街20号",
				"Latitude": 117.940068,
				"Longitude": 41.002781,
				"Slogan": "古代帝王宫苑，清代皇帝避暑处理政务地"
			}
		},
		{
			"type": "Feature",
			"geometry": {
				"type": "Point",
				"coordinates": [121.54785, 31.224219]
			},
			"properties": {
				"Name": "上海科技馆",
				"Location": "上海·上海·浦东新区",
				"Price": 49,
				"Sale": 1844,
				"Address": "上海市浦东新区世纪大道2000号",
				"Latitude": 121.54785,
				"Longitude": 31.224219,
				"Slogan": "技术改变生活，只有想不到没有做不到"
			}
		},
		{
			"type": "Feature",
			"geometry": {
				"type": "Point",
				"coordinates": [119.533165, 39.842702]
			},
			"properties": {
				"Name": "鸽子窝公园",
				"Location": "河北·秦皇岛·北戴河区",
				"Price": 23,
				"Sale": 1840,
				"Address": "河北省秦皇岛市北戴河区海滨东北角鸽赤路",
				"Latitude": 119.533165,
				"Longitude": 39.842702,
				"Slogan": "来这里欣赏“红日浴海”的奇景"
			}
		},
		{
			"type": "Feature",
			"geometry": {
				"type": "Point",
				"coordinates": [113.990656, 22.540551]
			},
			"properties": {
				"Name": "华侨城",
				"Location": "广东·深圳·南山区",
				"Price": 65,
				"Sale": 1832,
				"Address": "广东省深圳市南山区深南大道9012",
				"Latitude": 113.990656,
				"Longitude": 22.540551,
				"Slogan": "世界几千年人类文明精华为您一次呈现"
			}
		},
		{
			"type": "Feature",
			"geometry": {
				"type": "Point",
				"coordinates": [120.854425, 31.120241]
			},
			"properties": {
				"Name": "周庄",
				"Location": "江苏·苏州·昆山市",
				"Price": 88,
				"Sale": 1832,
				"Address": "江苏省苏州市昆山周庄全福路43号",
				"Latitude": 120.854425,
				"Longitude": 31.120241,
				"Slogan": "古香古色，品美食寻才子觅佳人"
			}
		},
		{
			"type": "Feature",
			"geometry": {
				"type": "Point",
				"coordinates": [119.516745, 30.452939]
			},
			"properties": {
				"Name": "浙北大峡谷",
				"Location": "浙江·湖州·安吉县",
				"Price": 70,
				"Sale": 1816,
				"Address": "浙江省湖州市安吉县报福镇石岭村浙北大峡谷风景区",
				"Latitude": 119.516745,
				"Longitude": 30.452939,
				"Slogan": "林石飞瀑竹海，浙江“青藏高原”"
			}
		},
		{
			"type": "Feature",
			"geometry": {
				"type": "Point",
				"coordinates": [113.999433, 22.528509]
			},
			"properties": {
				"Name": "海洋奇梦馆",
				"Location": "广东·深圳·欢乐海岸",
				"Price": 50,
				"Sale": 1812,
				"Address": "广东省深圳市南山区欢乐海岸内",
				"Latitude": 113.999433,
				"Longitude": 22.528509,
				"Slogan": "海洋奇梦馆，带你寻找童年的海洋梦"
			}
		},
		{
			"type": "Feature",
			"geometry": {
				"type": "Point",
				"coordinates": [118.127595, 29.339174]
			},
			"properties": {
				"Name": "婺源篁岭",
				"Location": "江西·上饶·婺源县",
				"Price": 35,
				"Sale": 1796,
				"Address": "江西省上饶市婺源县江湾镇篁岭村",
				"Latitude": 118.127595,
				"Longitude": 29.339174,
				"Slogan": "自游行的绝佳选择"
			}
		},
		{
			"type": "Feature",
			"geometry": {
				"type": "Point",
				"coordinates": [100.175674, 25.650175]
			},
			"properties": {
				"Name": "苍山国家地质公园",
				"Location": "云南·大理·大理市",
				"Price": 110,
				"Sale": 1788,
				"Address": "云南省大理白族自治州大理市漾濞彝族自治县",
				"Latitude": 100.175674,
				"Longitude": 25.650175,
				"Slogan": "绝色美景，不去就真的遗憾"
			}
		},
		{
			"type": "Feature",
			"geometry": {
				"type": "Point",
				"coordinates": [120.103968, 30.176543]
			},
			"properties": {
				"Name": "宋城千古情",
				"Location": "浙江·杭州·西湖区",
				"Price": 360,
				"Sale": 1788,
				"Address": "浙江省杭州市西湖区之江路148号",
				"Latitude": 120.103968,
				"Longitude": 30.176543,
				"Slogan": "杭州宋城的灵魂，世界三大名秀"
			}
		},
		{
			"type": "Feature",
			"geometry": {
				"type": "Point",
				"coordinates": [109.536751, 18.296306]
			},
			"properties": {
				"Name": "三亚千古情景区",
				"Location": "海南·三亚·河东区",
				"Price": 280,
				"Sale": 1786,
				"Address": "海南省三亚市河东区三亚海南省三亚市荔枝沟宋城三亚千古情景区",
				"Latitude": 109.536751,
				"Longitude": 18.296306,
				"Slogan": "给我一个小时，带你穿越千年"
			}
		},
		{
			"type": "Feature",
			"geometry": {
				"type": "Point",
				"coordinates": [102.99785, 30.079312]
			},
			"properties": {
				"Name": "自然峡谷风景区",
				"Location": "四川·雅安·碧峰峡",
				"Price": 95,
				"Sale": 1784,
				"Address": "四川省雅安市雨城区下里乡碧峰镇",
				"Latitude": 102.99785,
				"Longitude": 30.079312,
				"Slogan": "险、奇、秀、幽之原始风貌"
			}
		},
		{
			"type": "Feature",
			"geometry": {
				"type": "Point",
				"coordinates": [120.342061, 36.062757]
			},
			"properties": {
				"Name": "青岛海底世界",
				"Location": "山东·青岛·市南区",
				"Price": 135,
				"Sale": 1768,
				"Address": "山东省青岛市市南区莱阳路2号",
				"Latitude": 120.342061,
				"Longitude": 36.062757,
				"Slogan": "山中有海，偶遇美人鱼"
			}
		},
		{
			"type": "Feature",
			"geometry": {
				"type": "Point",
				"coordinates": [111.209664, 24.254288]
			},
			"properties": {
				"Name": "黄姚古镇",
				"Location": "广西·贺州·昭平县",
				"Price": 17,
				"Sale": 1762,
				"Address": "广西壮族自治区贺州市昭平县",
				"Latitude": 111.209664,
				"Longitude": 24.254288,
				"Slogan": "诗境家园，电影《面纱》拍摄地"
			}
		},
		{
			"type": "Feature",
			"geometry": {
				"type": "Point",
				"coordinates": [117.267356, 40.650895]
			},
			"properties": {
				"Name": "古北水镇",
				"Location": "北京·北京·密云县",
				"Price": 140,
				"Sale": 1760,
				"Address": "北京市密云县古北口镇司马台村古北水镇",
				"Latitude": 117.267356,
				"Longitude": 40.650895,
				"Slogan": "走进那个画中的小镇"
			}
		},
		{
			"type": "Feature",
			"geometry": {
				"type": "Point",
				"coordinates": [114.033084, 22.983256]
			},
			"properties": {
				"Name": "隐贤山庄",
				"Location": "广东·东莞·东莞市",
				"Price": 119,
				"Sale": 1744,
				"Address": "广东省东莞市常平镇隐贤山庄大道8号",
				"Latitude": 114.033084,
				"Longitude": 22.983256,
				"Slogan": "心目中的世外桃源"
			}
		},
		{
			"type": "Feature",
			"geometry": {
				"type": "Point",
				"coordinates": [109.990261, 18.402754]
			},
			"properties": {
				"Name": "南湾猴岛",
				"Location": "海南·陵水",
				"Price": 198,
				"Sale": 1740,
				"Address": "海南省陵水县黎族自治县新村镇南湾半岛",
				"Latitude": 109.990261,
				"Longitude": 18.402754,
				"Slogan": "碧水蓝天，猴趣横生"
			}
		},
		{
			"type": "Feature",
			"geometry": {
				"type": "Point",
				"coordinates": [119.455447, 32.39141]
			},
			"properties": {
				"Name": "何园",
				"Location": "江苏·扬州·广陵区",
				"Price": 38,
				"Sale": 1728,
				"Address": "江苏省扬州市广陵区徐凝门大街66号　",
				"Latitude": 119.455447,
				"Longitude": 32.39141,
				"Slogan": "晚清名园，扬州园林的代表"
			}
		},
		{
			"type": "Feature",
			"geometry": {
				"type": "Point",
				"coordinates": [119.751846, 28.302032]
			},
			"properties": {
				"Name": "古堰画乡",
				"Location": "浙江·丽水·莲都区",
				"Price": 40,
				"Sale": 1722,
				"Address": "浙江省丽水市莲都区大港头镇",
				"Latitude": 119.751846,
				"Longitude": 28.302032,
				"Slogan": "如此美景，恍如置身水墨画中"
			}
		},
		{
			"type": "Feature",
			"geometry": {
				"type": "Point",
				"coordinates": [108.98711, 34.221745]
			},
			"properties": {
				"Name": "曲江海洋极地公园",
				"Location": "陕西·西安·曲江旅游度假区",
				"Price": 158,
				"Sale": 1712,
				"Address": "陕西省西安市雁塔区曲江二路1号",
				"Latitude": 108.98711,
				"Longitude": 34.221745,
				"Slogan": "极地公园四馆八区带你畅游海洋世界"
			}
		},
		{
			"type": "Feature",
			"geometry": {
				"type": "Point",
				"coordinates": [120.074003, 30.274637]
			},
			"properties": {
				"Name": "西溪国家湿地公园·周家村",
				"Location": "浙江·杭州·西湖区",
				"Price": 460,
				"Sale": 1712,
				"Address": "浙江省杭州市西湖区天目山路518号",
				"Latitude": 120.074003,
				"Longitude": 30.274637,
				"Slogan": "游《非诚勿扰》拍摄地，感受湿地水乡浪漫"
			}
		},
		{
			"type": "Feature",
			"geometry": {
				"type": "Point",
				"coordinates": [100.799558, 27.668458]
			},
			"properties": {
				"Name": "泸沽湖",
				"Location": "云南·丽江·宁蒗县",
				"Price": 30,
				"Sale": 1706,
				"Address": "云南丽江市宁蒗彝族自治县东北部永宁乡",
				"Latitude": 100.799558,
				"Longitude": 27.668458,
				"Slogan": "翠绿如画，身临其境，水天一色，清澈如镜"
			}
		},
		{
			"type": "Feature",
			"geometry": {
				"type": "Point",
				"coordinates": [101.907249, 30.195329]
			},
			"properties": {
				"Name": "康定情歌木格措风景区",
				"Location": "四川·甘孜州·康定市",
				"Price": 180,
				"Sale": 1700,
				"Address": "四川省甘孜州康定县雅拉乡王母村",
				"Latitude": 101.907249,
				"Longitude": 30.195329,
				"Slogan": "童话里的木格措，享受大小金川自然风景"
			}
		},
		{
			"type": "Feature",
			"geometry": {
				"type": "Point",
				"coordinates": [120.102895, 31.436399]
			},
			"properties": {
				"Name": "灵山大佛",
				"Location": "江苏·无锡·滨湖区",
				"Price": 180,
				"Sale": 1668,
				"Address": "江苏省无锡市滨湖区灵山路1号",
				"Latitude": 120.102895,
				"Longitude": 31.436399,
				"Slogan": "观释迦牟尼佛青铜立像，赏佛教胜景"
			}
		},
		{
			"type": "Feature",
			"geometry": {
				"type": "Point",
				"coordinates": [120.317836, 29.146622]
			},
			"properties": {
				"Name": "清明上河图",
				"Location": "浙江·金华·横店影视城",
				"Price": 140,
				"Sale": 1662,
				"Address": "浙江省金华东阳市横店镇清明上河图",
				"Latitude": 120.317836,
				"Longitude": 29.146622,
				"Slogan": "一朝步入画中，仿佛梦回千年"
			}
		},
		{
			"type": "Feature",
			"geometry": {
				"type": "Point",
				"coordinates": [100.042244, 38.970483]
			},
			"properties": {
				"Name": "张掖七彩丹霞旅游景区",
				"Location": "甘肃·张掖·临泽县",
				"Price": 3,
				"Sale": 1660,
				"Address": "甘肃省张掖市临泽县倪家营南台子村",
				"Latitude": 100.042244,
				"Longitude": 38.970483,
				"Slogan": "来中国秀美的七大丹霞赏彩色丹霞"
			}
		},
		{
			"type": "Feature",
			"geometry": {
				"type": "Point",
				"coordinates": [109.133959, 21.492881]
			},
			"properties": {
				"Name": "北海海底世界",
				"Location": "广西·北海·海城区",
				"Price": 118,
				"Sale": 1648,
				"Address": "广西壮族自治区北海市银海区茶亭路27号海滨公园内",
				"Latitude": 109.133959,
				"Longitude": 21.492881,
				"Slogan": "畅游蓝色海洋之谜，欣赏人鱼共舞"
			}
		},
		{
			"type": "Feature",
			"geometry": {
				"type": "Point",
				"coordinates": [117.02264, 36.667808]
			},
			"properties": {
				"Name": "趵突泉公园",
				"Location": "山东·济南·天下第一泉风景区",
				"Price": 28,
				"Sale": 1646,
				"Address": "山东省济南市历下区趵突泉南路1号",
				"Latitude": 117.02264,
				"Longitude": 36.667808,
				"Slogan": "康熙皇帝赞誉的天下名泉"
			}
		},
		{
			"type": "Feature",
			"geometry": {
				"type": "Point",
				"coordinates": [114.267351, 30.552176]
			},
			"properties": {
				"Name": "归元寺",
				"Location": "湖北·武汉·汉阳区",
				"Price": 0,
				"Sale": 1638,
				"Address": "湖北省武汉市汉阳区归元寺路20号",
				"Latitude": 114.267351,
				"Longitude": 30.552176,
				"Slogan": "全国罕见，堪称丛林一奇"
			}
		},
		{
			"type": "Feature",
			"geometry": {
				"type": "Point",
				"coordinates": [111.881551, 36.902417]
			},
			"properties": {
				"Name": "山西王家大院",
				"Location": "山西·晋中·灵石县",
				"Price": 55,
				"Sale": 1630,
				"Address": "山西省晋中市灵石县静升镇静升村",
				"Latitude": 111.881551,
				"Longitude": 36.902417,
				"Slogan": "汉族传统民俗文化建筑艺术的瑰宝"
			}
		},
		{
			"type": "Feature",
			"geometry": {
				"type": "Point",
				"coordinates": [116.817819, 40.550308]
			},
			"properties": {
				"Name": "桃源仙谷",
				"Location": "北京·北京·密云县",
				"Price": 34,
				"Sale": 1618,
				"Address": "北京市密云县石城乡南石城村",
				"Latitude": 116.817819,
				"Longitude": 40.550308,
				"Slogan": "森林茂密"
			}
		},
		{
			"type": "Feature",
			"geometry": {
				"type": "Point",
				"coordinates": [114.162743, 27.471336]
			},
			"properties": {
				"Name": "武功山",
				"Location": "江西·萍乡·芦溪县",
				"Price": 60,
				"Sale": 1610,
				"Address": "江西省萍乡市芦溪县",
				"Latitude": 114.162743,
				"Longitude": 27.471336,
				"Slogan": "高山草甸，初见惊艳，再见依然！"
			}
		},
		{
			"type": "Feature",
			"geometry": {
				"type": "Point",
				"coordinates": [118.288777, 32.283117]
			},
			"properties": {
				"Name": "琅琊山",
				"Location": "安徽·滁州·滁州市",
				"Price": 75,
				"Sale": 1602,
				"Address": "安徽省滁州市南谯区览山路111号",
				"Latitude": 118.288777,
				"Longitude": 32.283117,
				"Slogan": "景色蔚然深秀，有“蓬莱之后无别山”之誉"
			}
		},
		{
			"type": "Feature",
			"geometry": {
				"type": "Point",
				"coordinates": [105.573795, 32.211505]
			},
			"properties": {
				"Name": "剑门关",
				"Location": "四川·广元·剑阁县",
				"Price": 37,
				"Sale": 1600,
				"Address": "四川省广元市剑阁县河东街64号",
				"Latitude": 105.573795,
				"Longitude": 32.211505,
				"Slogan": "自然风光雄、奇、幽、秀"
			}
		},
		{
			"type": "Feature",
			"geometry": {
				"type": "Point",
				"coordinates": [114.689055, 39.236145]
			},
			"properties": {
				"Name": "白石山世界地质公园",
				"Location": "河北·保定·涞源县",
				"Price": 130,
				"Sale": 1600,
				"Address": "河北省保定市涞源县城南15公里处白石山景区",
				"Latitude": 114.689055,
				"Longitude": 39.236145,
				"Slogan": "壮观悬空玻璃道，抗日少年英雄山"
			}
		},
		{
			"type": "Feature",
			"geometry": {
				"type": "Point",
				"coordinates": [105.977638, 31.580898]
			},
			"properties": {
				"Name": "阆中古城",
				"Location": "四川·南充·阆中市",
				"Price": 10,
				"Sale": 1598,
				"Address": "四川省阆中市阆水中路33号",
				"Latitude": 105.977638,
				"Longitude": 31.580898,
				"Slogan": "张飞镇守的风水古城"
			}
		},
		{
			"type": "Feature",
			"geometry": {
				"type": "Point",
				"coordinates": [104.036061, 30.666089]
			},
			"properties": {
				"Name": "成都杜甫草堂",
				"Location": "四川·成都·青羊区",
				"Price": 12,
				"Sale": 1588,
				"Address": "四川省成都市青羊区青华路37号",
				"Latitude": 104.036061,
				"Longitude": 30.666089,
				"Slogan": "成都地标签到处"
			}
		},
		{
			"type": "Feature",
			"geometry": {
				"type": "Point",
				"coordinates": [116.190163, 39.967956]
			},
			"properties": {
				"Name": "八大处公园",
				"Location": "北京·北京·石景山区",
				"Price": 10,
				"Sale": 1584,
				"Address": "北京市石景山区八达处路3号",
				"Latitude": 116.190163,
				"Longitude": 39.967956,
				"Slogan": "有八座古寺而得名，香山外另一爬山绝佳地"
			}
		},
		{
			"type": "Feature",
			"geometry": {
				"type": "Point",
				"coordinates": [113.146296, 23.849317]
			},
			"properties": {
				"Name": "清远天子山瀑布",
				"Location": "广东·清远·清新区",
				"Price": 58,
				"Sale": 1580,
				"Address": "广东省清远市清城区清新县飞来峡镇西坑村",
				"Latitude": 113.146296,
				"Longitude": 23.849317,
				"Slogan": "一座天然氧库，沁人心脾，令人心旷神怡"
			}
		},
		{
			"type": "Feature",
			"geometry": {
				"type": "Point",
				"coordinates": [118.860335, 32.063934]
			},
			"properties": {
				"Name": "中山陵",
				"Location": "江苏·南京·钟山风景区",
				"Price": 26,
				"Sale": 1558,
				"Address": "江苏省南京市玄武区石象路7号",
				"Latitude": 118.860335,
				"Longitude": 32.063934,
				"Slogan": "建筑名家之杰作，有着极高的艺术价值"
			}
		},
		{
			"type": "Feature",
			"geometry": {
				"type": "Point",
				"coordinates": [126.593929, 45.791562]
			},
			"properties": {
				"Name": "哈尔滨极地馆",
				"Location": "黑龙江·哈尔滨·松北区",
				"Price": 145,
				"Sale": 1554,
				"Address": "黑龙江省哈尔滨市松北区太阳大道3号",
				"Latitude": 126.593929,
				"Longitude": 45.791562,
				"Slogan": "全球罕见的极地演艺游乐园"
			}
		},
		{
			"type": "Feature",
			"geometry": {
				"type": "Point",
				"coordinates": [107.008268, 28.894072]
			},
			"properties": {
				"Name": "黑山谷",
				"Location": "重庆·重庆·万盛区",
				"Price": 5,
				"Sale": 1552,
				"Address": "重庆市万盛区黑山镇境内",
				"Latitude": 107.008268,
				"Longitude": 28.894072,
				"Slogan": "重庆独特的生物基因库，西南神农架"
			}
		},
		{
			"type": "Feature",
			"geometry": {
				"type": "Point",
				"coordinates": [110.458711, 36.136265]
			},
			"properties": {
				"Name": "壶口瀑布（山西）",
				"Location": "山西·临汾·吉县",
				"Price": 85,
				"Sale": 1552,
				"Address": "山西省临汾市吉县壶口镇黄河壶口瀑布国家地质公园内",
				"Latitude": 110.458711,
				"Longitude": 36.136265,
				"Slogan": "一年四季，欣赏不同时期瀑布恢宏"
			}
		},
		{
			"type": "Feature",
			"geometry": {
				"type": "Point",
				"coordinates": [126.639447, 45.710185]
			},
			"properties": {
				"Name": "济州岛汤泉",
				"Location": "黑龙江·哈尔滨·南岗区",
				"Price": 24,
				"Sale": 1548,
				"Address": "黑龙江省哈尔滨市南岗区征仪路280号",
				"Latitude": 126.639447,
				"Longitude": 45.710185,
				"Slogan": "尽情领略韩式汗蒸的独特魅力"
			}
		},
		{
			"type": "Feature",
			"geometry": {
				"type": "Point",
				"coordinates": [109.124525, 21.048067]
			},
			"properties": {
				"Name": "涠洲岛",
				"Location": "广西·北海·海城区",
				"Price": 105,
				"Sale": 1532,
				"Address": "广西省北海市南北部湾海域",
				"Latitude": 109.124525,
				"Longitude": 21.048067,
				"Slogan": "秀美的火山岛，感受渔家风情"
			}
		},
		{
			"type": "Feature",
			"geometry": {
				"type": "Point",
				"coordinates": [116.466287, 30.739246]
			},
			"properties": {
				"Name": "天柱山",
				"Location": "安徽·安庆·潜山县",
				"Price": 60,
				"Sale": 1520,
				"Address": "安徽省安庆市潜山县境内",
				"Latitude": 116.466287,
				"Longitude": 30.739246,
				"Slogan": "飞瀑流泉，溪涧遍布，山有多高，水有多长"
			}
		},
		{
			"type": "Feature",
			"geometry": {
				"type": "Point",
				"coordinates": [108.980798, 34.218929]
			},
			"properties": {
				"Name": "大唐芙蓉园",
				"Location": "陕西·西安·曲江旅游度假区",
				"Price": 108,
				"Sale": 1520,
				"Address": "陕西省西安市雁塔曲江新区芙蓉西路99号",
				"Latitude": 108.980798,
				"Longitude": 34.218929,
				"Slogan": "进入中国盛唐文化之旅"
			}
		},
		{
			"type": "Feature",
			"geometry": {
				"type": "Point",
				"coordinates": [110.302339, 25.274549]
			},
			"properties": {
				"Name": "象山景区",
				"Location": "广西·桂林·象山区",
				"Price": 51,
				"Sale": 1518,
				"Address": "广西壮族自治区桂林市民主路52号",
				"Latitude": 110.302339,
				"Longitude": 25.274549,
				"Slogan": "桂林城徽，绝美赏月地领略三月争辉奇景"
			}
		},
		{
			"type": "Feature",
			"geometry": {
				"type": "Point",
				"coordinates": [104.69184, 31.92708]
			},
			"properties": {
				"Name": "九皇山",
				"Location": "四川·绵阳·北川新县城",
				"Price": 85,
				"Sale": 1514,
				"Address": "四川省绵阳市北川羌族自治县桂溪乡金宝石村九皇山景区",
				"Latitude": 104.69184,
				"Longitude": 31.92708,
				"Slogan": "一座好玩的大山"
			}
		},
		{
			"type": "Feature",
			"geometry": {
				"type": "Point",
				"coordinates": [119.422532, 32.225542]
			},
			"properties": {
				"Name": "镇江金山",
				"Location": "江苏·镇江·润州区",
				"Price": 55,
				"Sale": 1506,
				"Address": "江苏省镇江市润州区金山路62号",
				"Latitude": 119.422532,
				"Longitude": 32.225542,
				"Slogan": "法海岂能懂爱，白娘娘大发雌威之地"
			}
		},
		{
			"type": "Feature",
			"geometry": {
				"type": "Point",
				"coordinates": [119.527456, 39.873205]
			},
			"properties": {
				"Name": "秦皇岛野生动物园",
				"Location": "河北·秦皇岛·北戴河区",
				"Price": 100,
				"Sale": 1504,
				"Address": "河北省秦皇岛市北戴河区滨海大道中段",
				"Latitude": 119.527456,
				"Longitude": 39.873205,
				"Slogan": "与动物“零距离”接触的野生动物园"
			}
		},
		{
			"type": "Feature",
			"geometry": {
				"type": "Point",
				"coordinates": [107.811189, 29.435993]
			},
			"properties": {
				"Name": "武隆天生三桥风景区",
				"Location": "重庆·重庆·武隆天坑地缝国家地质公园",
				"Price": 200,
				"Sale": 1498,
				"Address": "重庆市武隆县龙桥街巷口镇芙蓉路88号",
				"Latitude": 107.811189,
				"Longitude": 29.435993,
				"Slogan": "变形金刚大战黄金甲"
			}
		},
		{
			"type": "Feature",
			"geometry": {
				"type": "Point",
				"coordinates": [111.170932, 30.805222]
			},
			"properties": {
				"Name": "三峡人家",
				"Location": "湖北·宜昌·夷陵区",
				"Price": 168,
				"Sale": 1496,
				"Address": "湖北省宜昌市夷陵区西陵峡内",
				"Latitude": 111.170932,
				"Longitude": 30.805222,
				"Slogan": "三峡风光，巴风楚韵"
			}
		},
		{
			"type": "Feature",
			"geometry": {
				"type": "Point",
				"coordinates": [111.102943, 32.511746]
			},
			"properties": {
				"Name": "武当山",
				"Location": "湖北·十堰·丹江口市",
				"Price": 99,
				"Sale": 1494,
				"Address": "湖北省十堰市丹江口市武当山景区",
				"Latitude": 111.102943,
				"Longitude": 32.511746,
				"Slogan": "一座历史悠久的仙山，武当拳的发源地"
			}
		},
		{
			"type": "Feature",
			"geometry": {
				"type": "Point",
				"coordinates": [112.190081, 37.21041]
			},
			"properties": {
				"Name": "平遥古城",
				"Location": "山西·晋中·平遥县",
				"Price": 228,
				"Sale": 1456,
				"Address": "山西省晋中市平遥县",
				"Latitude": 112.190081,
				"Longitude": 37.21041,
				"Slogan": "游览原汁原味古城，感受浓郁的晋商文化气息"
			}
		},
		{
			"type": "Feature",
			"geometry": {
				"type": "Point",
				"coordinates": [119.027854, 29.605088]
			},
			"properties": {
				"Name": "千岛湖",
				"Location": "浙江·杭州·淳安县",
				"Price": 40,
				"Sale": 1432,
				"Address": "浙江省杭州市淳安县梦姑路",
				"Latitude": 119.027854,
				"Longitude": 29.605088,
				"Slogan": "亲近大自然，放飞心情"
			}
		},
		{
			"type": "Feature",
			"geometry": {
				"type": "Point",
				"coordinates": [107.723691, 25.262515]
			},
			"properties": {
				"Name": "小七孔景区",
				"Location": "贵州·黔南·荔波樟江",
				"Price": 30,
				"Sale": 1428,
				"Address": "贵州省黔南州荔波县",
				"Latitude": 107.723691,
				"Longitude": 25.262515,
				"Slogan": "山、水、林、洞、湖、瀑为一体的原始奇景"
			}
		},
		{
			"type": "Feature",
			"geometry": {
				"type": "Point",
				"coordinates": [104.054421, 30.652343]
			},
			"properties": {
				"Name": "成都武侯祠",
				"Location": "四川·成都·武侯区",
				"Price": 12,
				"Sale": 1424,
				"Address": "四川省成都市武侯区武侯祠大街231号",
				"Latitude": 104.054421,
				"Longitude": 30.652343,
				"Slogan": "体验三国蜀文化，享受最丰盛的文化晚餐"
			}
		},
		{
			"type": "Feature",
			"geometry": {
				"type": "Point",
				"coordinates": [115.606468, 39.644162]
			},
			"properties": {
				"Name": "十渡风景区",
				"Location": "北京·北京·房山区",
				"Price": 38,
				"Sale": 1414,
				"Address": "北京市房山区十渡镇十渡村",
				"Latitude": 115.606468,
				"Longitude": 39.644162,
				"Slogan": "远离城市喧嚣，感受自然之美"
			}
		},
		{
			"type": "Feature",
			"geometry": {
				"type": "Point",
				"coordinates": [123.66082, 41.871658]
			},
			"properties": {
				"Name": "沈阳世博园",
				"Location": "辽宁·沈阳·东陵区",
				"Price": 47,
				"Sale": 1406,
				"Address": "辽宁省沈阳市浑南区近郊高坎镇中马村双园路301号",
				"Latitude": 123.66082,
				"Longitude": 41.871658,
				"Slogan": "植物种类多的让你眼花缭乱"
			}
		},
		{
			"type": "Feature",
			"geometry": {
				"type": "Point",
				"coordinates": [114.335258, 22.61059]
			},
			"properties": {
				"Name": "深圳小梅沙海洋世界",
				"Location": "广东·深圳·小梅沙",
				"Price": 70,
				"Sale": 1404,
				"Address": "广东省深圳市盐田区小梅沙海洋世界",
				"Latitude": 114.335258,
				"Longitude": 22.61059,
				"Slogan": "一天穿越四大洋"
			}
		},
		{
			"type": "Feature",
			"geometry": {
				"type": "Point",
				"coordinates": [113.139454, 40.117323]
			},
			"properties": {
				"Name": "云冈石窟",
				"Location": "山西·大同·南郊区",
				"Price": 120,
				"Sale": 1404,
				"Address": "山西省大同市城西约16公里的武州山南麓",
				"Latitude": 113.139454,
				"Longitude": 40.117323,
				"Slogan": "石头写成的千年史卷"
			}
		},
		{
			"type": "Feature",
			"geometry": {
				"type": "Point",
				"coordinates": [100.155122, 25.688114]
			},
			"properties": {
				"Name": "天龙八部影视城",
				"Location": "云南·大理·大理市",
				"Price": 37,
				"Sale": 1388,
				"Address": "云南省大理州大理古城苍山景区下",
				"Latitude": 100.155122,
				"Longitude": 25.688114,
				"Slogan": "为拍摄《天龙八部》兴建的拍摄基地"
			}
		},
		{
			"type": "Feature",
			"geometry": {
				"type": "Point",
				"coordinates": [91.125491, 29.660076]
			},
			"properties": {
				"Name": "布达拉宫",
				"Location": "西藏·拉萨·城关区",
				"Price": 90,
				"Sale": 1380,
				"Address": "西藏自治区拉萨市城关区北京中路35号",
				"Latitude": 91.125491,
				"Longitude": 29.660076,
				"Slogan": "朝圣者的天堂"
			}
		},
		{
			"type": "Feature",
			"geometry": {
				"type": "Point",
				"coordinates": [116.417313, 39.887976]
			},
			"properties": {
				"Name": "天坛公园",
				"Location": "北京·北京·东城区",
				"Price": 50,
				"Sale": 1380,
				"Address": "北京市东城区天坛内东里7号",
				"Latitude": 116.417313,
				"Longitude": 39.887976,
				"Slogan": "探寻古代皇帝祭天仪式的奥秘"
			}
		},
		{
			"type": "Feature",
			"geometry": {
				"type": "Point",
				"coordinates": [109.490334, 18.213506]
			},
			"properties": {
				"Name": "鹿回头风景区",
				"Location": "海南·三亚·吉阳区",
				"Price": 32,
				"Sale": 1380,
				"Address": "海南省三亚市西南端鹿回头半岛内",
				"Latitude": 109.490334,
				"Longitude": 18.213506,
				"Slogan": "天南旅行乡，鹿回头爱情的圣地"
			}
		},
		{
			"type": "Feature",
			"geometry": {
				"type": "Point",
				"coordinates": [120.233458, 31.529306]
			},
			"properties": {
				"Name": "鼋头渚",
				"Location": "江苏·无锡·滨湖区",
				"Price": 85,
				"Sale": 1376,
				"Address": "江苏省无锡市滨湖区鼋头渚1号",
				"Latitude": 120.233458,
				"Longitude": 31.529306,
				"Slogan": "太湖佳绝处，毕竟在鼋头"
			}
		},
		{
			"type": "Feature",
			"geometry": {
				"type": "Point",
				"coordinates": [103.835122, 30.729492]
			},
			"properties": {
				"Name": "国色天乡·陆地乐园",
				"Location": "四川·成都·国色天乡",
				"Price": 79,
				"Sale": 1374,
				"Address": "四川省成都市温江区万春镇天香路88号国色天乡乐园",
				"Latitude": 103.835122,
				"Longitude": 30.729492,
				"Slogan": "来这里体验惊险刺激"
			}
		},
		{
			"type": "Feature",
			"geometry": {
				"type": "Point",
				"coordinates": [121.498981, 31.232772]
			},
			"properties": {
				"Name": "豫园",
				"Location": "上海·上海·黄浦区",
				"Price": 40,
				"Sale": 1372,
				"Address": "上海豫园旅游商业区内",
				"Latitude": 121.498981,
				"Longitude": 31.232772,
				"Slogan": "“奇秀甲于东南”、“东南名园冠”。"
			}
		},
		{
			"type": "Feature",
			"geometry": {
				"type": "Point",
				"coordinates": [106.518121, 29.533967]
			},
			"properties": {
				"Name": "重庆幻太奇海洋世界",
				"Location": "重庆·重庆·重庆小时代梦想艺术乐园",
				"Price": 88,
				"Sale": 1368,
				"Address": "重庆市九龙坡区奥体1号小时代梦想艺术乐园广场穹顶入口",
				"Latitude": 106.518121,
				"Longitude": 29.533967,
				"Slogan": "海洋生物、陆地萌宠动物展示、海洋动物表演"
			}
		},
		{
			"type": "Feature",
			"geometry": {
				"type": "Point",
				"coordinates": [117.810454, 30.488263]
			},
			"properties": {
				"Name": "九华山",
				"Location": "安徽·池州·青阳县",
				"Price": 50,
				"Sale": 1368,
				"Address": "安徽省池州市九华山镇二一九省道",
				"Latitude": 117.810454,
				"Longitude": 30.488263,
				"Slogan": "神奇灵秀地，大愿九华山"
			}
		},
		{
			"type": "Feature",
			"geometry": {
				"type": "Point",
				"coordinates": [113.886718, 22.937157]
			},
			"properties": {
				"Name": "梦幻百花洲",
				"Location": "广东·东莞·东莞市",
				"Price": 48,
				"Sale": 1362,
				"Address": "广东省东莞市新城路松山湖新城大道中心公园内",
				"Latitude": 113.886718,
				"Longitude": 22.937157,
				"Slogan": "徜徉花海，您自拍的理想圣地"
			}
		},
		{
			"type": "Feature",
			"geometry": {
				"type": "Point",
				"coordinates": [114.053957, 22.31561]
			},
			"properties": {
				"Name": "迪士尼乐园餐券",
				"Location": "香港·香港·香港迪士尼乐园",
				"Price": 194,
				"Sale": 1354,
				"Address": "香港迪士尼乐园",
				"Latitude": 114.053957,
				"Longitude": 22.31561,
				"Slogan": "在玩耍的同时享受美食"
			}
		},
		{
			"type": "Feature",
			"geometry": {
				"type": "Point",
				"coordinates": [109.735201, 18.319541]
			},
			"properties": {
				"Name": "三亚海昌梦幻海洋不夜城",
				"Location": "海南·三亚·海棠区",
				"Price": 60,
				"Sale": 1348,
				"Address": "海南省三亚市海棠区海岸大道168号三亚海昌梦幻海洋不夜城",
				"Latitude": 109.735201,
				"Longitude": 18.319541,
				"Slogan": "坐上这座海上摩天轮，浪漫之旅，由此开始"
			}
		},
		{
			"type": "Feature",
			"geometry": {
				"type": "Point",
				"coordinates": [120.89521, 30.945875]
			},
			"properties": {
				"Name": "西塘古镇",
				"Location": "浙江·嘉兴·嘉善县",
				"Price": 85,
				"Sale": 1342,
				"Address": "浙江省嘉兴市嘉善县西塘镇",
				"Latitude": 120.89521,
				"Longitude": 30.945875,
				"Slogan": "水墨西塘让你感受古镇千年的诗情画意"
			}
		},
		{
			"type": "Feature",
			"geometry": {
				"type": "Point",
				"coordinates": [120.290165, 36.215056]
			},
			"properties": {
				"Name": "青岛方特梦幻王国",
				"Location": "山东·青岛·城阳区",
				"Price": 280,
				"Sale": 1338,
				"Address": "山东省青岛市城阳区红岛街道岙东南路华南文化产业基地内",
				"Latitude": 120.290165,
				"Longitude": 36.215056,
				"Slogan": "梦幻、惊险、刺激，你想要的，这里都有"
			}
		},
		{
			"type": "Feature",
			"geometry": {
				"type": "Point",
				"coordinates": [101.576298, 36.494459]
			},
			"properties": {
				"Name": "塔尔寺",
				"Location": "青海·西宁·湟中县",
				"Price": 70,
				"Sale": 1334,
				"Address": "青海省西宁市湟中县鲁沙尔镇",
				"Latitude": 101.576298,
				"Longitude": 36.494459,
				"Slogan": "佛光里的塔尔寺"
			}
		},
		{
			"type": "Feature",
			"geometry": {
				"type": "Point",
				"coordinates": [118.751653, 31.918951]
			},
			"properties": {
				"Name": "牛首山文化旅游区",
				"Location": "江苏·南京·江宁区",
				"Price": 87,
				"Sale": 1330,
				"Address": "江苏省南京市江宁区宁丹大道18号",
				"Latitude": 118.751653,
				"Longitude": 31.918951,
				"Slogan": "佛教牛头禅的发祥地"
			}
		},
		{
			"type": "Feature",
			"geometry": {
				"type": "Point",
				"coordinates": [118.031946, 24.211022]
			},
			"properties": {
				"Name": "火山岛自然生态风景区",
				"Location": "福建·漳州·漳浦县",
				"Price": 88,
				"Sale": 1326,
				"Address": "福建省漳州市漳浦县前亭镇江口村与岐沙村交口处",
				"Latitude": 118.031946,
				"Longitude": 24.211022,
				"Slogan": "滨海火山地貌"
			}
		},
		{
			"type": "Feature",
			"geometry": {
				"type": "Point",
				"coordinates": [106.73464, 22.858947]
			},
			"properties": {
				"Name": "德天跨国瀑布",
				"Location": "广西·崇左·大新县",
				"Price": 109,
				"Sale": 1324,
				"Address": "广西壮族自治区崇左市大新县硕龙镇陇宏村德天跨国瀑布景区",
				"Latitude": 106.73464,
				"Longitude": 22.858947,
				"Slogan": "天然跨国瀑布，中国六大著名瀑布之一"
			}
		},
		{
			"type": "Feature",
			"geometry": {
				"type": "Point",
				"coordinates": [104.019799, 30.686636]
			},
			"properties": {
				"Name": "金沙遗址",
				"Location": "四川·成都·青羊区",
				"Price": 12,
				"Sale": 1318,
				"Address": "四川省成都市金沙遗址路2号",
				"Latitude": 104.019799,
				"Longitude": 30.686636,
				"Slogan": "看沉睡千年的太阳神鸟，了解神秘古蜀文化"
			}
		},
		{
			"type": "Feature",
			"geometry": {
				"type": "Point",
				"coordinates": [122.147601, 37.499885]
			},
			"properties": {
				"Name": "刘公岛",
				"Location": "山东·威海·环翠区",
				"Price": 60,
				"Sale": 1316,
				"Address": "山东省威海市海滨北路101-2号",
				"Latitude": 122.147601,
				"Longitude": 37.499885,
				"Slogan": "北洋水师的诞生地，甲午战争的古战场"
			}
		},
		{
			"type": "Feature",
			"geometry": {
				"type": "Point",
				"coordinates": [104.370532, 31.252236]
			},
			"properties": {
				"Name": "和海景区",
				"Location": "四川·德阳",
				"Price": 58,
				"Sale": 1312,
				"Address": "四川省德阳市旌阳区德新镇五星村",
				"Latitude": 104.370532,
				"Longitude": 31.252236,
				"Slogan": "和海以旅游兴乡村，以文娱促发展"
			}
		},
		{
			"type": "Feature",
			"geometry": {
				"type": "Point",
				"coordinates": [113.294206, 22.883542]
			},
			"properties": {
				"Name": "长鹿休闲度假农庄",
				"Location": "广东·佛山·顺德区",
				"Price": 70,
				"Sale": 1308,
				"Address": "广东省佛山市顺德区伦教三洲建设东路8号",
				"Latitude": 113.294206,
				"Longitude": 22.883542,
				"Slogan": "体验岭南历史文化，感受农家生活情趣"
			}
		},
		{
			"type": "Feature",
			"geometry": {
				"type": "Point",
				"coordinates": [119.54357, 39.827324]
			},
			"properties": {
				"Name": "碧螺塔海上酒吧公园",
				"Location": "河北·秦皇岛·北戴河区",
				"Price": 24,
				"Sale": 1306,
				"Address": "河北省秦皇岛市北戴河区东海滩路中段",
				"Latitude": 119.54357,
				"Longitude": 39.827324,
				"Slogan": "一个具有百老汇风情的中国式酒吧公园"
			}
		},
		{
			"type": "Feature",
			"geometry": {
				"type": "Point",
				"coordinates": [116.398488, 39.989306]
			},
			"properties": {
				"Name": "北京中华民族园",
				"Location": "北京·北京·朝阳区",
				"Price": 78,
				"Sale": 1290,
				"Address": "北京市朝阳区民族园路1号",
				"Latitude": 116.398488,
				"Longitude": 39.989306,
				"Slogan": "中华各民族文化集萃地"
			}
		},
		{
			"type": "Feature",
			"geometry": {
				"type": "Point",
				"coordinates": [106.960039, 28.84188]
			},
			"properties": {
				"Name": "梦幻奥陶纪",
				"Location": "重庆·重庆·万盛区",
				"Price": 5,
				"Sale": 1288,
				"Address": "重庆市綦江区万盛黑山谷南门上行5公里—梦幻奥陶纪景区",
				"Latitude": 106.960039,
				"Longitude": 28.84188,
				"Slogan": "穿越5亿年，探索神奇远古寒冰洞"
			}
		},
		{
			"type": "Feature",
			"geometry": {
				"type": "Point",
				"coordinates": [121.845195, 29.293159]
			},
			"properties": {
				"Name": "象山影视城",
				"Location": "浙江·宁波·象山县",
				"Price": 130,
				"Sale": 1282,
				"Address": "浙江省宁波市象山县新桥镇大塘港生态旅游区",
				"Latitude": 121.845195,
				"Longitude": 29.293159,
				"Slogan": "芈月伴你游 （琅琊榜拍摄地）"
			}
		},
		{
			"type": "Feature",
			"geometry": {
				"type": "Point",
				"coordinates": [116.347505, 39.95032]
			},
			"properties": {
				"Name": "北京海洋馆",
				"Location": "北京·北京·西城区",
				"Price": 170,
				"Sale": 1280,
				"Address": "北京市海淀区高粱桥斜街乙18号",
				"Latitude": 116.347505,
				"Longitude": 39.95032,
				"Slogan": "奇幻海洋之旅，在帝都感受大海的魅力"
			}
		},
		{
			"type": "Feature",
			"geometry": {
				"type": "Point",
				"coordinates": [114.285587, 30.669357]
			},
			"properties": {
				"Name": "武汉海昌极地海洋公园",
				"Location": "湖北·武汉·东西湖区",
				"Price": 145,
				"Sale": 1280,
				"Address": "湖北省武汉市东西湖区金银潭大道96号",
				"Latitude": 114.285587,
				"Longitude": 30.669357,
				"Slogan": "极地海洋主题公园，不一样的极地世界"
			}
		},
		{
			"type": "Feature",
			"geometry": {
				"type": "Point",
				"coordinates": [109.215372, 21.426977]
			},
			"properties": {
				"Name": "北海金海湾红树林",
				"Location": "广西·北海·银海区",
				"Price": 70,
				"Sale": 1272,
				"Address": "广西省北海市银海区区东南方约15公里处",
				"Latitude": 109.215372,
				"Longitude": 21.426977,
				"Slogan": "摸螺、捉蟹、挖沙虫，跟渔民一起赶海去"
			}
		},
		{
			"type": "Feature",
			"geometry": {
				"type": "Point",
				"coordinates": [118.038311, 29.46079]
			},
			"properties": {
				"Name": "婺源江岭（油菜花）",
				"Location": "江西·上饶·婺源风景区",
				"Price": 143,
				"Sale": 1268,
				"Address": "江西省上饶市婺源县溪头乡江岭梯田风光中心",
				"Latitude": 118.038311,
				"Longitude": 29.46079,
				"Slogan": "梯田如链似带，高低错落，壮丽雄奇"
			}
		},
		{
			"type": "Feature",
			"geometry": {
				"type": "Point",
				"coordinates": [113.330995, 23.112229]
			},
			"properties": {
				"Name": "广州塔",
				"Location": "广东·广州·海珠区",
				"Price": 131,
				"Sale": 1264,
				"Address": "广东省广州市海珠区阅江西路222号",
				"Latitude": 113.330995,
				"Longitude": 23.112229,
				"Slogan": "360度羊城全貌，感受王者之居高临下"
			}
		},
		{
			"type": "Feature",
			"geometry": {
				"type": "Point",
				"coordinates": [119.805028, 39.975207]
			},
			"properties": {
				"Name": "山海关老龙头景区",
				"Location": "河北·秦皇岛·山海关区",
				"Price": 50,
				"Sale": 1260,
				"Address": "河北省秦皇岛市山海关区龙海大道1号",
				"Latitude": 119.805028,
				"Longitude": 39.975207,
				"Slogan": "人类历史上的千古奇观"
			}
		},
		{
			"type": "Feature",
			"geometry": {
				"type": "Point",
				"coordinates": [109.749389, 18.362882]
			},
			"properties": {
				"Name": "亚特兰蒂斯失落的空间水族馆",
				"Location": "海南·三亚·三亚 亚特兰蒂斯度假区",
				"Price": 168,
				"Sale": 1256,
				"Address": "海南省三亚市海棠湾海棠北路亚特兰蒂斯",
				"Latitude": 109.749389,
				"Longitude": 18.362882,
				"Slogan": "失落的空间水族馆邀您一同揭开千年之谜"
			}
		},
		{
			"type": "Feature",
			"geometry": {
				"type": "Point",
				"coordinates": [119.491161, 39.840984]
			},
			"properties": {
				"Name": "北戴河",
				"Location": "河北·秦皇岛·北戴河区",
				"Price": 18,
				"Sale": 1252,
				"Address": "河北省秦皇岛北戴河区北戴河",
				"Latitude": 119.491161,
				"Longitude": 39.840984,
				"Slogan": "北方的三亚"
			}
		},
		{
			"type": "Feature",
			"geometry": {
				"type": "Point",
				"coordinates": [116.409192, 39.939808]
			},
			"properties": {
				"Name": "南锣鼓巷",
				"Location": "北京·北京·东城区",
				"Price": 0,
				"Sale": 1244,
				"Address": "北京市东城区南锣鼓巷117号",
				"Latitude": 116.409192,
				"Longitude": 39.939808,
				"Slogan": "也位列规划中的25片旧城保护区之中。南锣鼓巷南北走向，北起鼓楼东大街，"
			}
		},
		{
			"type": "Feature",
			"geometry": {
				"type": "Point",
				"coordinates": [112.906583, 24.158095]
			},
			"properties": {
				"Name": "英西峰林走廊洞天仙境",
				"Location": "广东·清远·英西峰林",
				"Price": 72,
				"Sale": 1242,
				"Address": "广东省清远英德市九龙镇英西峰林景区内",
				"Latitude": 112.906583,
				"Longitude": 24.158095,
				"Slogan": "在九龙，观洞天仙境，九龙在渊，福地洞天"
			}
		},
		{
			"type": "Feature",
			"geometry": {
				"type": "Point",
				"coordinates": [120.239237, 31.481725]
			},
			"properties": {
				"Name": "无锡三国城",
				"Location": "江苏·无锡·滨湖区",
				"Price": 85,
				"Sale": 1228,
				"Address": "江苏省无锡市山水城旅游度假区三国城",
				"Latitude": 120.239237,
				"Longitude": 31.481725,
				"Slogan": "品味东吴音韵，观看金戈铁马"
			}
		},
		{
			"type": "Feature",
			"geometry": {
				"type": "Point",
				"coordinates": [105.975946, 28.395717]
			},
			"properties": {
				"Name": "赤水丹霞旅游区·佛光岩",
				"Location": "贵州·遵义·赤水市",
				"Price": 15,
				"Sale": 1222,
				"Address": "贵州省遵义市赤水市元厚镇境内",
				"Latitude": 105.975946,
				"Longitude": 28.395717,
				"Slogan": "集新、奇、险、秀、幽、野六大特色为一体"
			}
		},
		{
			"type": "Feature",
			"geometry": {
				"type": "Point",
				"coordinates": [110.078836, 25.731802]
			},
			"properties": {
				"Name": "龙脊梯田",
				"Location": "广西·桂林·龙胜县",
				"Price": 80,
				"Sale": 1214,
				"Address": "广西壮族自治区桂林市龙胜县东南部和平乡境内",
				"Latitude": 110.078836,
				"Longitude": 25.731802,
				"Slogan": "中国秀美梯田，脱离城市去触摸自然"
			}
		},
		{
			"type": "Feature",
			"geometry": {
				"type": "Point",
				"coordinates": [114.314984, 38.07516]
			},
			"properties": {
				"Name": "石家庄市动物园",
				"Location": "河北·石家庄·鹿泉市",
				"Price": 48,
				"Sale": 1206,
				"Address": "河北省鹿泉市获鹿镇杜家庄村西北侧",
				"Latitude": 114.314984,
				"Longitude": 38.07516,
				"Slogan": "观赏动物与游览风景结合，别具特色"
			}
		},
		{
			"type": "Feature",
			"geometry": {
				"type": "Point",
				"coordinates": [120.105205, 30.175961]
			},
			"properties": {
				"Name": "杭州宋城景区",
				"Location": "浙江·杭州",
				"Price": 360,
				"Sale": 1204,
				"Address": "浙江省杭州市西湖区之江路148号",
				"Latitude": 120.105205,
				"Longitude": 30.175961,
				"Slogan": "杭州宋城是中国大陆人气超旺的主题公园"
			}
		},
		{
			"type": "Feature",
			"geometry": {
				"type": "Point",
				"coordinates": [99.155005, 36.666619]
			},
			"properties": {
				"Name": "茶卡盐湖",
				"Location": "青海·海西蒙古族藏族自治州·乌兰县",
				"Price": 3,
				"Sale": 1202,
				"Address": "青海省海西州鸟兰县茶卡镇盐湖路",
				"Latitude": 99.155005,
				"Longitude": 36.666619,
				"Slogan": "天然结晶盐，晶大质纯"
			}
		},
		{
			"type": "Feature",
			"geometry": {
				"type": "Point",
				"coordinates": [121.366785, 38.904189]
			},
			"properties": {
				"Name": "大连英歌石植物园",
				"Location": "辽宁·大连·旅顺口区",
				"Price": 55,
				"Sale": 1192,
				"Address": "辽宁大连旅顺口区旅顺中路南侧山谷里",
				"Latitude": 121.366785,
				"Longitude": 38.904189,
				"Slogan": "中国山水画般美丽、世外桃源般沉静的景致"
			}
		},
		{
			"type": "Feature",
			"geometry": {
				"type": "Point",
				"coordinates": [117.254089, 40.266748]
			},
			"properties": {
				"Name": "京东石林峡",
				"Location": "北京·北京·平谷区",
				"Price": 58,
				"Sale": 1180,
				"Address": "北京市平谷区黄松峪乡雕窝村73号",
				"Latitude": 117.254089,
				"Longitude": 40.266748,
				"Slogan": "谷内山峰挺立峭拔，天上美景落人间"
			}
		},
		{
			"type": "Feature",
			"geometry": {
				"type": "Point",
				"coordinates": [106.595811, 29.569354]
			},
			"properties": {
				"Name": "重庆两江夜游",
				"Location": "重庆·重庆·渝中区",
				"Price": 118,
				"Sale": 1178,
				"Address": "重庆市渝中区朝天门4.5.6码头",
				"Latitude": 106.595811,
				"Longitude": 29.569354,
				"Slogan": "不览夜景，未到重庆"
			}
		},
		{
			"type": "Feature",
			"geometry": {
				"type": "Point",
				"coordinates": [117.041792, 36.644733]
			},
			"properties": {
				"Name": "千佛山",
				"Location": "山东·济南·历下区",
				"Price": 28,
				"Sale": 1174,
				"Address": "山东省济南市历下区经十一路18号",
				"Latitude": 117.041792,
				"Longitude": 36.644733,
				"Slogan": "遥望齐州九点烟，一泓海水杯中泻"
			}
		},
		{
			"type": "Feature",
			"geometry": {
				"type": "Point",
				"coordinates": [119.680087, 31.303594]
			},
			"properties": {
				"Name": "善卷洞",
				"Location": "江苏·无锡·宜兴市",
				"Price": 99,
				"Sale": 1164,
				"Address": "江苏省无锡宜兴市张渚镇川善线善卷洞",
				"Latitude": 119.680087,
				"Longitude": 31.303594,
				"Slogan": "是著名石灰岩溶洞，宜兴“三奇”之首"
			}
		},
		{
			"type": "Feature",
			"geometry": {
				"type": "Point",
				"coordinates": [106.389074, 38.820453]
			},
			"properties": {
				"Name": "沙湖旅游区",
				"Location": "宁夏·石嘴山·平罗县",
				"Price": 90,
				"Sale": 1164,
				"Address": "宁夏省石嘴山市平罗县境内西大滩",
				"Latitude": 106.389074,
				"Longitude": 38.820453,
				"Slogan": "看珍鸟奇禽，群鸟嬉戏的绝佳之地"
			}
		},
		{
			"type": "Feature",
			"geometry": {
				"type": "Point",
				"coordinates": [112.95541, 23.77049]
			},
			"properties": {
				"Name": "古龙峡玻璃大峡谷",
				"Location": "广东·清远·清新区",
				"Price": 158,
				"Sale": 1152,
				"Address": "广东省清远市清新区三坑滩",
				"Latitude": 112.95541,
				"Longitude": 23.77049,
				"Slogan": "集合玻璃平台、栈道、索桥为的观光玻璃组合"
			}
		},
		{
			"type": "Feature",
			"geometry": {
				"type": "Point",
				"coordinates": [102.078072, 24.975647]
			},
			"properties": {
				"Name": "世界恐龙谷",
				"Location": "云南·楚雄·禄丰县",
				"Price": 64,
				"Sale": 1150,
				"Address": "云南省楚雄彝族自治州禄丰县世界恐龙谷风景旅游区",
				"Latitude": 102.078072,
				"Longitude": 24.975647,
				"Slogan": "走进恐龙王国，穿越侏罗纪世界"
			}
		},
		{
			"type": "Feature",
			"geometry": {
				"type": "Point",
				"coordinates": [124.090355, 41.308561]
			},
			"properties": {
				"Name": "本溪水洞",
				"Location": "辽宁·本溪·本溪县",
				"Price": 132,
				"Sale": 1150,
				"Address": "辽宁省本溪市本溪满族自治县谢家崴子村",
				"Latitude": 124.090355,
				"Longitude": 41.308561,
				"Slogan": "石奇，松秀，大气磅礴的“北国小黄山”"
			}
		},
		{
			"type": "Feature",
			"geometry": {
				"type": "Point",
				"coordinates": [109.654555, 18.236153]
			},
			"properties": {
				"Name": "亚龙湾",
				"Location": "海南·三亚",
				"Price": 85,
				"Sale": 1146,
				"Address": "海南省三亚市亚龙湾国家旅游度假区",
				"Latitude": 109.654555,
				"Longitude": 18.236153,
				"Slogan": "湛蓝天宇映衬着碧波万顷，景象万千"
			}
		},
		{
			"type": "Feature",
			"geometry": {
				"type": "Point",
				"coordinates": [115.248695, 31.0979]
			},
			"properties": {
				"Name": "龟峰山",
				"Location": "湖北·黄冈·麻城市",
				"Price": 98,
				"Sale": 1146,
				"Address": "湖北省黄冈麻城市龟峰山村",
				"Latitude": 115.248695,
				"Longitude": 31.0979,
				"Slogan": "麻城杜鹃令人眼界大开，堪称世界奇迹"
			}
		},
		{
			"type": "Feature",
			"geometry": {
				"type": "Point",
				"coordinates": [109.673664, 18.456698]
			},
			"properties": {
				"Name": "呀诺达热带雨林",
				"Location": "海南·保亭",
				"Price": 130,
				"Sale": 1140,
				"Address": "海南省保亭黎族苗族自治县三道农场呀诺达雨林文化旅游区",
				"Latitude": 109.673664,
				"Longitude": 18.456698,
				"Slogan": "地处北纬18度的热带雨林"
			}
		},
		{
			"type": "Feature",
			"geometry": {
				"type": "Point",
				"coordinates": [100.154462, 25.686735]
			},
			"properties": {
				"Name": "苍山洗马潭索道",
				"Location": "云南·大理·天龙八部影视城",
				"Price": 150,
				"Sale": 1138,
				"Address": "云南省大理白族自治州大理市苍山景区下三月街天龙八部影视城内",
				"Latitude": 100.154462,
				"Longitude": 25.686735,
				"Slogan": "体验在山云间穿梭之美，一览苍山美景"
			}
		},
		{
			"type": "Feature",
			"geometry": {
				"type": "Point",
				"coordinates": [114.291853, 27.68778]
			},
			"properties": {
				"Name": "明月千古情",
				"Location": "江西·宜春·袁州区",
				"Price": 140,
				"Sale": 1136,
				"Address": "江西省宜春市温汤镇千古情大道",
				"Latitude": 114.291853,
				"Longitude": 27.68778,
				"Slogan": "明月千古情景区位于江西宜春明月山温泉风景名胜区，这里凝聚了月亮文化、红色文化、禅宗文化、青瓷文化、温泉文化。上万平方米全"
			}
		},
		{
			"type": "Feature",
			"geometry": {
				"type": "Point",
				"coordinates": [105.752971, 28.381778]
			},
			"properties": {
				"Name": "赤水丹霞旅游区·大瀑布",
				"Location": "贵州·遵义·赤水游客中心",
				"Price": 60,
				"Sale": 1132,
				"Address": "贵州省遵义市赤水市两河口乡",
				"Latitude": 105.752971,
				"Longitude": 28.381778,
				"Slogan": "瀑水声如雷鸣，数百米内水雾弥漫"
			}
		},
		{
			"type": "Feature",
			"geometry": {
				"type": "Point",
				"coordinates": [111.330549, 30.930427]
			},
			"properties": {
				"Name": "三峡大瀑布",
				"Location": "湖北·宜昌·夷陵区",
				"Price": 30,
				"Sale": 1132,
				"Address": "湖北省宜昌市夷陵区黄花乡黄花场村",
				"Latitude": 111.330549,
				"Longitude": 30.930427,
				"Slogan": "天然瀑布群和峡谷丛林风光"
			}
		},
		{
			"type": "Feature",
			"geometry": {
				"type": "Point",
				"coordinates": [118.795398, 32.026977]
			},
			"properties": {
				"Name": "夫子庙",
				"Location": "江苏·南京·秦淮区",
				"Price": 26,
				"Sale": 1122,
				"Address": "江苏省南京市秦淮区龙蟠中路夫子庙",
				"Latitude": 118.795398,
				"Longitude": 32.026977,
				"Slogan": "一条长江路，半部民国史"
			}
		},
		{
			"type": "Feature",
			"geometry": {
				"type": "Point",
				"coordinates": [102.997037, 30.078428]
			},
			"properties": {
				"Name": "碧峰峡",
				"Location": "四川·雅安·雨城区",
				"Price": 95,
				"Sale": 1120,
				"Address": "四川省雅安市雨城区下里乡碧峰镇",
				"Latitude": 102.997037,
				"Longitude": 30.078428,
				"Slogan": "听浪漫传说，呼吸大自然新鲜空气"
			}
		},
		{
			"type": "Feature",
			"geometry": {
				"type": "Point",
				"coordinates": [118.025561, 30.374314]
			},
			"properties": {
				"Name": "黄山太平湖",
				"Location": "安徽·黄山·黄山区",
				"Price": 41,
				"Sale": 1118,
				"Address": "安徽省黄山市黄山区太平湖镇",
				"Latitude": 118.025561,
				"Longitude": 30.374314,
				"Slogan": "“黄山情侣”太平湖，“中华翡翠”在皖南"
			}
		},
		{
			"type": "Feature",
			"geometry": {
				"type": "Point",
				"coordinates": [110.203976, 19.98332]
			},
			"properties": {
				"Name": "长影环球100奇幻乐园",
				"Location": "海南·海口·秀英区",
				"Price": 99,
				"Sale": 1110,
				"Address": "海南省海口市秀英区椰海大道100号长影环球100旅游文化度假区",
				"Latitude": 110.203976,
				"Longitude": 19.98332,
				"Slogan": "以影视为主题的大型奇幻乐园"
			}
		},
		{
			"type": "Feature",
			"geometry": {
				"type": "Point",
				"coordinates": [121.558497, 31.221764]
			},
			"properties": {
				"Name": "上海世纪公园",
				"Location": "上海·上海·浦东新区",
				"Price": 9,
				"Sale": 1106,
				"Address": "上海市浦东新区浦东锦绣路1001号",
				"Latitude": 121.558497,
				"Longitude": 31.221764,
				"Slogan": "环境“很嗲”，空气“清新”"
			}
		},
		{
			"type": "Feature",
			"geometry": {
				"type": "Point",
				"coordinates": [115.888564, 28.686101]
			},
			"properties": {
				"Name": "滕王阁",
				"Location": "江西·南昌·东湖区",
				"Price": 45,
				"Sale": 1104,
				"Address": "江西省南昌市东湖区仿古街58号",
				"Latitude": 115.888564,
				"Longitude": 28.686101,
				"Slogan": "落霞与孤鹜齐飞，秋水共长天一色"
			}
		},
		{
			"type": "Feature",
			"geometry": {
				"type": "Point",
				"coordinates": [106.830561, 30.261716]
			},
			"properties": {
				"Name": "天意谷",
				"Location": "四川·广安·邻水县",
				"Price": 95,
				"Sale": 1100,
				"Address": "四川省广安市邻水县甘坝乡苏家村",
				"Latitude": 106.830561,
				"Longitude": 30.261716,
				"Slogan": "水石交融、高深莫测的神秘世界"
			}
		},
		{
			"type": "Feature",
			"geometry": {
				"type": "Point",
				"coordinates": [113.858259, 23.001864]
			},
			"properties": {
				"Name": "东莞香市动物园",
				"Location": "广东·东莞·东莞市",
				"Price": 110,
				"Sale": 1098,
				"Address": "广东省东莞市寮步镇香市旅游区",
				"Latitude": 113.858259,
				"Longitude": 23.001864,
				"Slogan": "动物表演精彩绝伦，体验不一样的快乐"
			}
		},
		{
			"type": "Feature",
			"geometry": {
				"type": "Point",
				"coordinates": [117.101623, 24.662736]
			},
			"properties": {
				"Name": "云水谣土楼群",
				"Location": "福建·漳州·南靖土楼群",
				"Price": 84,
				"Sale": 1092,
				"Address": "福建漳州南靖县云水谣古镇",
				"Latitude": 117.101623,
				"Longitude": 24.662736,
				"Slogan": "幽长古道，百年老榕，神奇土楼，灵山碧水"
			}
		},
		{
			"type": "Feature",
			"geometry": {
				"type": "Point",
				"coordinates": [116.806452, 40.182654]
			},
			"properties": {
				"Name": "北京国际鲜花港",
				"Location": "北京·北京·顺义区",
				"Price": 25,
				"Sale": 1078,
				"Address": "北京市顺义区杨镇鲜花港南路9号",
				"Latitude": 116.806452,
				"Longitude": 40.182654,
				"Slogan": "感受花卉文化，徜徉花的海洋"
			}
		},
		{
			"type": "Feature",
			"geometry": {
				"type": "Point",
				"coordinates": [119.990867, 30.153351]
			},
			"properties": {
				"Name": "杭州野生动物世界",
				"Location": "浙江·杭州·富阳市",
				"Price": 210,
				"Sale": 1078,
				"Address": "浙江省杭州富阳市杭富路九龙大道1号",
				"Latitude": 119.990867,
				"Longitude": 30.153351,
				"Slogan": "多功能综合性生态公园"
			}
		},
		{
			"type": "Feature",
			"geometry": {
				"type": "Point",
				"coordinates": [118.84258, 32.056109]
			},
			"properties": {
				"Name": "明孝陵",
				"Location": "江苏·南京·钟山风景区",
				"Price": 26,
				"Sale": 1078,
				"Address": "江苏省南京市玄武区紫金山南麓独龙阜玩珠峰下",
				"Latitude": 118.84258,
				"Longitude": 32.056109,
				"Slogan": "朱元璋和马皇后合葬于此"
			}
		},